[{"neighbourhood":{"id":5000001,"type":"NEIGHBOURHOOD","name":"Abiansemal","latitude":-8.5584335,"longitude":115.2244853,"order":400},"parent":{"state":{"id":2000002,"type":"STATE","name":"Bali","latitude":-6.21462,"longitude":106.84513,"order":200},"city":{"id":4000217,"type":"CITY","name":"Kab. Badung","latitude":-8.61561,"longitude":115.12964,"order":300}}},{"neighbourhood":{"id":5000002,"type":"NEIGHBOURHOOD","name":"Kuta","latitude":-8.7223957,"longitude":115.1767095,"order":400},"parent":{"state":{"id":2000002,"type":"STATE","name":"Bali","latitude":-6.21462,"longitude":106.84513,"order":200},"city":{"id":4000217,"type":"CITY","name":"Kab. Badung","latitude":-8.61561,"longitude":115.12964,"order":300}}},{"neighbourhood":{"id":5000003,"type":"NEIGHBOURHOOD","name":"Kuta Selatan","latitude":-8.8063252,"longitude":115.1533426,"order":400},"parent":{"state":{"id":2000002,"type":"STATE","name":"Bali","latitude":-6.21462,"longitude":106.84513,"order":200},"city":{"id":4000217,"type":"CITY","name":"Kab. Badung","latitude":-8.61561,"longitude":115.12964,"order":300}}},{"neighbourhood":{"id":5000004,"type":"NEIGHBOURHOOD","name":"Kuta Utara","latitude":-8.6488988,"longitude":115.1592718,"order":400},"parent":{"state":{"id":2000002,"type":"STATE","name":"Bali","latitude":-6.21462,"longitude":106.84513,"order":200},"city":{"id":4000217,"type":"CITY","name":"Kab. Badung","latitude":-8.61561,"longitude":115.12964,"order":300}}},{"neighbourhood":{"id":5000005,"type":"NEIGHBOURHOOD","name":"Mengwi","latitude":-8.5617185,"longitude":115.1770586,"order":400},"parent":{"state":{"id":2000002,"type":"STATE","name":"Bali","latitude":-6.21462,"longitude":106.84513,"order":200},"city":{"id":4000217,"type":"CITY","name":"Kab. Badung","latitude":-8.61561,"longitude":115.12964,"order":300}}},{"neighbourhood":{"id":5000006,"type":"NEIGHBOURHOOD","name":"Petang","latitude":-8.3365862,"longitude":115.2244853,"order":400},"parent":{"state":{"id":2000002,"type":"STATE","name":"Bali","latitude":-6.21462,"longitude":106.84513,"order":200},"city":{"id":4000217,"type":"CITY","name":"Kab. Badung","latitude":-8.61561,"longitude":115.12964,"order":300}}},{"neighbourhood":{"id":5000007,"type":"NEIGHBOURHOOD","name":"Bangli","latitude":-8.454303,"longitude":115.354897,"order":400},"parent":{"state":{"id":2000002,"type":"STATE","name":"Bali","latitude":-6.21462,"longitude":106.84513,"order":200},"city":{"id":4000218,"type":"CITY","name":"Kab. Bangli","latitude":-8.48654,"longitude":115.34841,"order":300}}},{"neighbourhood":{"id":5000008,"type":"NEIGHBOURHOOD","name":"Kintamani","latitude":-8.2573896,"longitude":115.3548713,"order":400},"parent":{"state":{"id":2000002,"type":"STATE","name":"Bali","latitude":-6.21462,"longitude":106.84513,"order":200},"city":{"id":4000218,"type":"CITY","name":"Kab. Bangli","latitude":-8.48654,"longitude":115.34841,"order":300}}},{"neighbourhood":{"id":5000009,"type":"NEIGHBOURHOOD","name":"Susut","latitude":-8.4145123,"longitude":115.3370947,"order":400},"parent":{"state":{"id":2000002,"type":"STATE","name":"Bali","latitude":-6.21462,"longitude":106.84513,"order":200},"city":{"id":4000218,"type":"CITY","name":"Kab. Bangli","latitude":-8.48654,"longitude":115.34841,"order":300}}},{"neighbourhood":{"id":5000010,"type":"NEIGHBOURHOOD","name":"Tembuku","latitude":-8.4058202,"longitude":115.3904215,"order":400},"parent":{"state":{"id":2000002,"type":"STATE","name":"Bali","latitude":-6.21462,"longitude":106.84513,"order":200},"city":{"id":4000218,"type":"CITY","name":"Kab. Bangli","latitude":-8.48654,"longitude":115.34841,"order":300}}},{"neighbourhood":{"id":5000011,"type":"NEIGHBOURHOOD","name":"Banjar","latitude":-8.2284815,"longitude":115.0347366,"order":400},"parent":{"state":{"id":2000002,"type":"STATE","name":"Bali","latitude":-6.21462,"longitude":106.84513,"order":200},"city":{"id":4000219,"type":"CITY","name":"Buleleng Kab.","latitude":-8.11958,"longitude":115.09234,"order":300}}},{"neighbourhood":{"id":5000012,"type":"NEIGHBOURHOOD","name":"Buleleng","latitude":-8.1186202,"longitude":115.0999753,"order":400},"parent":{"state":{"id":2000002,"type":"STATE","name":"Bali","latitude":-6.21462,"longitude":106.84513,"order":200},"city":{"id":4000219,"type":"CITY","name":"Buleleng Kab.","latitude":-8.11958,"longitude":115.09234,"order":300}}},{"neighbourhood":{"id":5000013,"type":"NEIGHBOURHOOD","name":"Busungbiu","latitude":-8.3262486,"longitude":114.9279547,"order":400},"parent":{"state":{"id":2000002,"type":"STATE","name":"Bali","latitude":-6.21462,"longitude":106.84513,"order":200},"city":{"id":4000219,"type":"CITY","name":"Buleleng Kab.","latitude":-8.11958,"longitude":115.09234,"order":300}}},{"neighbourhood":{"id":5000014,"type":"NEIGHBOURHOOD","name":"Gerokgak","latitude":-8.2146454,"longitude":114.7855271,"order":400},"parent":{"state":{"id":2000002,"type":"STATE","name":"Bali","latitude":-6.21462,"longitude":106.84513,"order":200},"city":{"id":4000219,"type":"CITY","name":"Buleleng Kab.","latitude":-8.11958,"longitude":115.09234,"order":300}}}][{"neighbourhood":{"id":5000014,"type":"NEIGHBOURHOOD","name":"Gerokgak","latitude":-8.2146454,"longitude":114.7855271,"order":400},"parent":{"state":{"id":2000002,"type":"STATE","name":"Bali","latitude":-6.21462,"longitude":106.84513,"order":200},"city":{"id":4000219,"type":"CITY","name":"Buleleng Kab.","latitude":-8.11958,"longitude":115.09234,"order":300}}}]