[{"neighbourhood":{"id":5000001,"type":"NEIGHBOURHOOD","name":"Abiansemal","latitude":-8.5584335,"longitude":115.2244853,"order":400},"parent":{"state":{"id":2000002,"type":"STATE","name":"Bali","latitude":-6.21462,"longitude":106.84513,"order":200},"city":{"id":4000217,"type":"CITY","name":"Kab. Badung","latitude":-8.61561,"longitude":115.12964,"order":300}}},{"neighbourhood":{"id":5000002,"type":"NEIGHBOURHOOD","name":"Kuta","latitude":-8.7223957,"longitude":115.1767095,"order":400},"parent":{"state":{"id":2000002,"type":"STATE","name":"Bali","latitude":-6.21462,"longitude":106.84513,"order":200},"city":{"id":4000217,"type":"CITY","name":"Kab. Badung","latitude":-8.61561,"longitude":115.12964,"order":300}}},{"neighbourhood":{"id":5000003,"type":"NEIGHBOURHOOD","name":"Kuta Selatan","latitude":-8.8063252,"longitude":115.1533426,"order":400},"parent":{"state":{"id":2000002,"type":"STATE","name":"Bali","latitude":-6.21462,"longitude":106.84513,"order":200},"city":{"id":4000217,"type":"CITY","name":"Kab. Badung","latitude":-8.61561,"longitude":115.12964,"order":300}}},{"neighbourhood":{"id":5000004,"type":"NEIGHBOURHOOD","name":"Kuta Utara","latitude":-8.6488988,"longitude":115.1592718,"order":400},"parent":{"state":{"id":2000002,"type":"STATE","name":"Bali","latitude":-6.21462,"longitude":106.84513,"order":200},"city":{"id":4000217,"type":"CITY","name":"Kab. Badung","latitude":-8.61561,"longitude":115.12964,"order":300}}},{"neighbourhood":{"id":5000005,"type":"NEIGHBOURHOOD","name":"Mengwi","latitude":-8.5617185,"longitude":115.1770586,"order":400},"parent":{"state":{"id":2000002,"type":"STATE","name":"Bali","latitude":-6.21462,"longitude":106.84513,"order":200},"city":{"id":4000217,"type":"CITY","name":"Kab. Badung","latitude":-8.61561,"longitude":115.12964,"order":300}}},{"neighbourhood":{"id":5000006,"type":"NEIGHBOURHOOD","name":"Petang","latitude":-8.3365862,"longitude":115.2244853,"order":400},"parent":{"state":{"id":2000002,"type":"STATE","name":"Bali","latitude":-6.21462,"longitude":106.84513,"order":200},"city":{"id":4000217,"type":"CITY","name":"Kab. Badung","latitude":-8.61561,"longitude":115.12964,"order":300}}},{"neighbourhood":{"id":5000007,"type":"NEIGHBOURHOOD","name":"Bangli","latitude":-8.454303,"longitude":115.354897,"order":400},"parent":{"state":{"id":2000002,"type":"STATE","name":"Bali","latitude":-6.21462,"longitude":106.84513,"order":200},"city":{"id":4000218,"type":"CITY","name":"Kab. Bangli","latitude":-8.48654,"longitude":115.34841,"order":300}}},{"neighbourhood":{"id":5000008,"type":"NEIGHBOURHOOD","name":"Kintamani","latitude":-8.2573896,"longitude":115.3548713,"order":400},"parent":{"state":{"id":2000002,"type":"STATE","name":"Bali","latitude":-6.21462,"longitude":106.84513,"order":200},"city":{"id":4000218,"type":"CITY","name":"Kab. Bangli","latitude":-8.48654,"longitude":115.34841,"order":300}}},{"neighbourhood":{"id":5000009,"type":"NEIGHBOURHOOD","name":"Susut","latitude":-8.4145123,"longitude":115.3370947,"order":400},"parent":{"state":{"id":2000002,"type":"STATE","name":"Bali","latitude":-6.21462,"longitude":106.84513,"order":200},"city":{"id":4000218,"type":"CITY","name":"Kab. Bangli","latitude":-8.48654,"longitude":115.34841,"order":300}}},{"neighbourhood":{"id":5000010,"type":"NEIGHBOURHOOD","name":"Tembuku","latitude":-8.4058202,"longitude":115.3904215,"order":400},"parent":{"state":{"id":2000002,"type":"STATE","name":"Bali","latitude":-6.21462,"longitude":106.84513,"order":200},"city":{"id":4000218,"type":"CITY","name":"Kab. Bangli","latitude":-8.48654,"longitude":115.34841,"order":300}}},{"neighbourhood":{"id":5000011,"type":"NEIGHBOURHOOD","name":"Banjar","latitude":-8.2284815,"longitude":115.0347366,"order":400},"parent":{"state":{"id":2000002,"type":"STATE","name":"Bali","latitude":-6.21462,"longitude":106.84513,"order":200},"city":{"id":4000219,"type":"CITY","name":"Buleleng Kab.","latitude":-8.11958,"longitude":115.09234,"order":300}}},{"neighbourhood":{"id":5000012,"type":"NEIGHBOURHOOD","name":"Buleleng","latitude":-8.1186202,"longitude":115.0999753,"order":400},"parent":{"state":{"id":2000002,"type":"STATE","name":"Bali","latitude":-6.21462,"longitude":106.84513,"order":200},"city":{"id":4000219,"type":"CITY","name":"Buleleng Kab.","latitude":-8.11958,"longitude":115.09234,"order":300}}},{"neighbourhood":{"id":5000013,"type":"NEIGHBOURHOOD","name":"Busungbiu","latitude":-8.3262486,"longitude":114.9279547,"order":400},"parent":{"state":{"id":2000002,"type":"STATE","name":"Bali","latitude":-6.21462,"longitude":106.84513,"order":200},"city":{"id":4000219,"type":"CITY","name":"Buleleng Kab.","latitude":-8.11958,"longitude":115.09234,"order":300}}},{"neighbourhood":{"id":5000014,"type":"NEIGHBOURHOOD","name":"Gerokgak","latitude":-8.2146454,"longitude":114.7855271,"order":400},"parent":{"state":{"id":2000002,"type":"STATE","name":"Bali","latitude":-6.21462,"longitude":106.84513,"order":200},"city":{"id":4000219,"type":"CITY","name":"Buleleng Kab.","latitude":-8.11958,"longitude":115.09234,"order":300}}},{"neighbourhood":{"id":5000015,"type":"NEIGHBOURHOOD","name":"Kubutambahan","latitude":-8.1062097,"longitude":115.2126293,"order":400},"parent":{"state":{"id":2000002,"type":"STATE","name":"Bali","latitude":-6.21462,"longitude":106.84513,"order":200},"city":{"id":4000219,"type":"CITY","name":"Buleleng Kab.","latitude":-8.11958,"longitude":115.09234,"order":300}}},{"neighbourhood":{"id":5000015,"type":"NEIGHBOURHOOD","name":"Kubutambahan","latitude":-8.1062097,"longitude":115.2126293,"order":400},"parent":{"state":{"id":2000002,"type":"STATE","name":"Bali","latitude":-6.21462,"longitude":106.84513,"order":200},"city":{"id":4000219,"type":"CITY","name":"Buleleng Kab.","latitude":-8.11958,"longitude":115.09234,"order":300}}},{"neighbourhood":{"id":5000015,"type":"NEIGHBOURHOOD","name":"Kubutambahan","latitude":-8.1062097,"longitude":115.2126293,"order":400},"parent":{"state":{"id":2000002,"type":"STATE","name":"Bali","latitude":-6.21462,"longitude":106.84513,"order":200},"city":{"id":4000219,"type":"CITY","name":"Buleleng Kab.","latitude":-8.11958,"longitude":115.09234,"order":300}}},{"neighbourhood":{"id":5000015,"type":"NEIGHBOURHOOD","name":"Kubutambahan","latitude":-8.1062097,"longitude":115.2126293,"order":400},"parent":{"state":{"id":2000002,"type":"STATE","name":"Bali","latitude":-6.21462,"longitude":106.84513,"order":200},"city":{"id":4000219,"type":"CITY","name":"Buleleng Kab.","latitude":-8.11958,"longitude":115.09234,"order":300}}},{"neighbourhood":{"id":5000016,"type":"NEIGHBOURHOOD","name":"Sawan","latitude":-8.1587483,"longitude":115.1770586,"order":400},"parent":{"state":{"id":2000002,"type":"STATE","name":"Bali","latitude":-6.21462,"longitude":106.84513,"order":200},"city":{"id":4000219,"type":"CITY","name":"Buleleng Kab.","latitude":-8.11958,"longitude":115.09234,"order":300}}},{"neighbourhood":{"id":5000016,"type":"NEIGHBOURHOOD","name":"Sawan","latitude":-8.1587483,"longitude":115.1770586,"order":400},"parent":{"state":{"id":2000002,"type":"STATE","name":"Bali","latitude":-6.21462,"longitude":106.84513,"order":200},"city":{"id":4000219,"type":"CITY","name":"Buleleng Kab.","latitude":-8.11958,"longitude":115.09234,"order":300}}},{"neighbourhood":{"id":5000017,"type":"NEIGHBOURHOOD","name":"Seririt","latitude":-8.2053196,"longitude":114.9279547,"order":400},"parent":{"state":{"id":2000002,"type":"STATE","name":"Bali","latitude":-6.21462,"longitude":106.84513,"order":200},"city":{"id":4000219,"type":"CITY","name":"Buleleng Kab.","latitude":-8.11958,"longitude":115.09234,"order":300}}},{"neighbourhood":{"id":5000001,"type":"NEIGHBOURHOOD","name":"Abiansemal","latitude":-8.5584335,"longitude":115.2244853,"order":400},"parent":{"state":{"id":2000002,"type":"STATE","name":"Bali","latitude":-6.21462,"longitude":106.84513,"order":200},"city":{"id":4000217,"type":"CITY","name":"Kab. Badung","latitude":-8.61561,"longitude":115.12964,"order":300}}},{"neighbourhood":{"id":5000002,"type":"NEIGHBOURHOOD","name":"Kuta","latitude":-8.7223957,"longitude":115.1767095,"order":400},"parent":{"state":{"id":2000002,"type":"STATE","name":"Bali","latitude":-6.21462,"longitude":106.84513,"order":200},"city":{"id":4000217,"type":"CITY","name":"Kab. Badung","latitude":-8.61561,"longitude":115.12964,"order":300}}},{"neighbourhood":{"id":5000003,"type":"NEIGHBOURHOOD","name":"Kuta Selatan","latitude":-8.8063252,"longitude":115.1533426,"order":400},"parent":{"state":{"id":2000002,"type":"STATE","name":"Bali","latitude":-6.21462,"longitude":106.84513,"order":200},"city":{"id":4000217,"type":"CITY","name":"Kab. Badung","latitude":-8.61561,"longitude":115.12964,"order":300}}},{"neighbourhood":{"id":5000004,"type":"NEIGHBOURHOOD","name":"Kuta Utara","latitude":-8.6488988,"longitude":115.1592718,"order":400},"parent":{"state":{"id":2000002,"type":"STATE","name":"Bali","latitude":-6.21462,"longitude":106.84513,"order":200},"city":{"id":4000217,"type":"CITY","name":"Kab. Badung","latitude":-8.61561,"longitude":115.12964,"order":300}}},{"neighbourhood":{"id":5000005,"type":"NEIGHBOURHOOD","name":"Mengwi","latitude":-8.5617185,"longitude":115.1770586,"order":400},"parent":{"state":{"id":2000002,"type":"STATE","name":"Bali","latitude":-6.21462,"longitude":106.84513,"order":200},"city":{"id":4000217,"type":"CITY","name":"Kab. Badung","latitude":-8.61561,"longitude":115.12964,"order":300}}},{"neighbourhood":{"id":5000006,"type":"NEIGHBOURHOOD","name":"Petang","latitude":-8.3365862,"longitude":115.2244853,"order":400},"parent":{"state":{"id":2000002,"type":"STATE","name":"Bali","latitude":-6.21462,"longitude":106.84513,"order":200},"city":{"id":4000217,"type":"CITY","name":"Kab. Badung","latitude":-8.61561,"longitude":115.12964,"order":300}}},{"neighbourhood":{"id":5000007,"type":"NEIGHBOURHOOD","name":"Bangli","latitude":-8.454303,"longitude":115.354897,"order":400},"parent":{"state":{"id":2000002,"type":"STATE","name":"Bali","latitude":-6.21462,"longitude":106.84513,"order":200},"city":{"id":4000218,"type":"CITY","name":"Kab. Bangli","latitude":-8.48654,"longitude":115.34841,"order":300}}},{"neighbourhood":{"id":5000008,"type":"NEIGHBOURHOOD","name":"Kintamani","latitude":-8.2573896,"longitude":115.3548713,"order":400},"parent":{"state":{"id":2000002,"type":"STATE","name":"Bali","latitude":-6.21462,"longitude":106.84513,"order":200},"city":{"id":4000218,"type":"CITY","name":"Kab. Bangli","latitude":-8.48654,"longitude":115.34841,"order":300}}},{"neighbourhood":{"id":5000009,"type":"NEIGHBOURHOOD","name":"Susut","latitude":-8.4145123,"longitude":115.3370947,"order":400},"parent":{"state":{"id":2000002,"type":"STATE","name":"Bali","latitude":-6.21462,"longitude":106.84513,"order":200},"city":{"id":4000218,"type":"CITY","name":"Kab. Bangli","latitude":-8.48654,"longitude":115.34841,"order":300}}},{"neighbourhood":{"id":5000010,"type":"NEIGHBOURHOOD","name":"Tembuku","latitude":-8.4058202,"longitude":115.3904215,"order":400},"parent":{"state":{"id":2000002,"type":"STATE","name":"Bali","latitude":-6.21462,"longitude":106.84513,"order":200},"city":{"id":4000218,"type":"CITY","name":"Kab. Bangli","latitude":-8.48654,"longitude":115.34841,"order":300}}},{"neighbourhood":{"id":5000011,"type":"NEIGHBOURHOOD","name":"Banjar","latitude":-8.2284815,"longitude":115.0347366,"order":400},"parent":{"state":{"id":2000002,"type":"STATE","name":"Bali","latitude":-6.21462,"longitude":106.84513,"order":200},"city":{"id":4000219,"type":"CITY","name":"Buleleng Kab.","latitude":-8.11958,"longitude":115.09234,"order":300}}},{"neighbourhood":{"id":5000012,"type":"NEIGHBOURHOOD","name":"Buleleng","latitude":-8.1186202,"longitude":115.0999753,"order":400},"parent":{"state":{"id":2000002,"type":"STATE","name":"Bali","latitude":-6.21462,"longitude":106.84513,"order":200},"city":{"id":4000219,"type":"CITY","name":"Buleleng Kab.","latitude":-8.11958,"longitude":115.09234,"order":300}}},{"neighbourhood":{"id":5000013,"type":"NEIGHBOURHOOD","name":"Busungbiu","latitude":-8.3262486,"longitude":114.9279547,"order":400},"parent":{"state":{"id":2000002,"type":"STATE","name":"Bali","latitude":-6.21462,"longitude":106.84513,"order":200},"city":{"id":4000219,"type":"CITY","name":"Buleleng Kab.","latitude":-8.11958,"longitude":115.09234,"order":300}}},{"neighbourhood":{"id":5000014,"type":"NEIGHBOURHOOD","name":"Gerokgak","latitude":-8.2146454,"longitude":114.7855271,"order":400},"parent":{"state":{"id":2000002,"type":"STATE","name":"Bali","latitude":-6.21462,"longitude":106.84513,"order":200},"city":{"id":4000219,"type":"CITY","name":"Buleleng Kab.","latitude":-8.11958,"longitude":115.09234,"order":300}}},{"neighbourhood":{"id":5000015,"type":"NEIGHBOURHOOD","name":"Kubutambahan","latitude":-8.1062097,"longitude":115.2126293,"order":400},"parent":{"state":{"id":2000002,"type":"STATE","name":"Bali","latitude":-6.21462,"longitude":106.84513,"order":200},"city":{"id":4000219,"type":"CITY","name":"Buleleng Kab.","latitude":-8.11958,"longitude":115.09234,"order":300}}},{"neighbourhood":{"id":5000016,"type":"NEIGHBOURHOOD","name":"Sawan","latitude":-8.1587483,"longitude":115.1770586,"order":400},"parent":{"state":{"id":2000002,"type":"STATE","name":"Bali","latitude":-6.21462,"longitude":106.84513,"order":200},"city":{"id":4000219,"type":"CITY","name":"Buleleng Kab.","latitude":-8.11958,"longitude":115.09234,"order":300}}},{"neighbourhood":{"id":5000017,"type":"NEIGHBOURHOOD","name":"Seririt","latitude":-8.2053196,"longitude":114.9279547,"order":400},"parent":{"state":{"id":2000002,"type":"STATE","name":"Bali","latitude":-6.21462,"longitude":106.84513,"order":200},"city":{"id":4000219,"type":"CITY","name":"Buleleng Kab.","latitude":-8.11958,"longitude":115.09234,"order":300}}},{"neighbourhood":{"id":5000001,"type":"NEIGHBOURHOOD","name":"Abiansemal","latitude":-8.5584335,"longitude":115.2244853,"order":400},"parent":{"state":{"id":2000002,"type":"STATE","name":"Bali","latitude":-6.21462,"longitude":106.84513,"order":200},"city":{"id":4000217,"type":"CITY","name":"Kab. Badung","latitude":-8.61561,"longitude":115.12964,"order":300}}},{"neighbourhood":{"id":5000002,"type":"NEIGHBOURHOOD","name":"Kuta","latitude":-8.7223957,"longitude":115.1767095,"order":400},"parent":{"state":{"id":2000002,"type":"STATE","name":"Bali","latitude":-6.21462,"longitude":106.84513,"order":200},"city":{"id":4000217,"type":"CITY","name":"Kab. Badung","latitude":-8.61561,"longitude":115.12964,"order":300}}},{"neighbourhood":{"id":5000003,"type":"NEIGHBOURHOOD","name":"Kuta Selatan","latitude":-8.8063252,"longitude":115.1533426,"order":400},"parent":{"state":{"id":2000002,"type":"STATE","name":"Bali","latitude":-6.21462,"longitude":106.84513,"order":200},"city":{"id":4000217,"type":"CITY","name":"Kab. Badung","latitude":-8.61561,"longitude":115.12964,"order":300}}},{"neighbourhood":{"id":5000004,"type":"NEIGHBOURHOOD","name":"Kuta Utara","latitude":-8.6488988,"longitude":115.1592718,"order":400},"parent":{"state":{"id":2000002,"type":"STATE","name":"Bali","latitude":-6.21462,"longitude":106.84513,"order":200},"city":{"id":4000217,"type":"CITY","name":"Kab. Badung","latitude":-8.61561,"longitude":115.12964,"order":300}}},{"neighbourhood":{"id":5000005,"type":"NEIGHBOURHOOD","name":"Mengwi","latitude":-8.5617185,"longitude":115.1770586,"order":400},"parent":{"state":{"id":2000002,"type":"STATE","name":"Bali","latitude":-6.21462,"longitude":106.84513,"order":200},"city":{"id":4000217,"type":"CITY","name":"Kab. Badung","latitude":-8.61561,"longitude":115.12964,"order":300}}},{"neighbourhood":{"id":5000006,"type":"NEIGHBOURHOOD","name":"Petang","latitude":-8.3365862,"longitude":115.2244853,"order":400},"parent":{"state":{"id":2000002,"type":"STATE","name":"Bali","latitude":-6.21462,"longitude":106.84513,"order":200},"city":{"id":4000217,"type":"CITY","name":"Kab. Badung","latitude":-8.61561,"longitude":115.12964,"order":300}}},{"neighbourhood":{"id":5000007,"type":"NEIGHBOURHOOD","name":"Bangli","latitude":-8.454303,"longitude":115.354897,"order":400},"parent":{"state":{"id":2000002,"type":"STATE","name":"Bali","latitude":-6.21462,"longitude":106.84513,"order":200},"city":{"id":4000218,"type":"CITY","name":"Kab. Bangli","latitude":-8.48654,"longitude":115.34841,"order":300}}},{"neighbourhood":{"id":5000008,"type":"NEIGHBOURHOOD","name":"Kintamani","latitude":-8.2573896,"longitude":115.3548713,"order":400},"parent":{"state":{"id":2000002,"type":"STATE","name":"Bali","latitude":-6.21462,"longitude":106.84513,"order":200},"city":{"id":4000218,"type":"CITY","name":"Kab. Bangli","latitude":-8.48654,"longitude":115.34841,"order":300}}},{"neighbourhood":{"id":5000009,"type":"NEIGHBOURHOOD","name":"Susut","latitude":-8.4145123,"longitude":115.3370947,"order":400},"parent":{"state":{"id":2000002,"type":"STATE","name":"Bali","latitude":-6.21462,"longitude":106.84513,"order":200},"city":{"id":4000218,"type":"CITY","name":"Kab. Bangli","latitude":-8.48654,"longitude":115.34841,"order":300}}},{"neighbourhood":{"id":5000010,"type":"NEIGHBOURHOOD","name":"Tembuku","latitude":-8.4058202,"longitude":115.3904215,"order":400},"parent":{"state":{"id":2000002,"type":"STATE","name":"Bali","latitude":-6.21462,"longitude":106.84513,"order":200},"city":{"id":4000218,"type":"CITY","name":"Kab. Bangli","latitude":-8.48654,"longitude":115.34841,"order":300}}},{"neighbourhood":{"id":5000011,"type":"NEIGHBOURHOOD","name":"Banjar","latitude":-8.2284815,"longitude":115.0347366,"order":400},"parent":{"state":{"id":2000002,"type":"STATE","name":"Bali","latitude":-6.21462,"longitude":106.84513,"order":200},"city":{"id":4000219,"type":"CITY","name":"Buleleng Kab.","latitude":-8.11958,"longitude":115.09234,"order":300}}},{"neighbourhood":{"id":5000012,"type":"NEIGHBOURHOOD","name":"Buleleng","latitude":-8.1186202,"longitude":115.0999753,"order":400},"parent":{"state":{"id":2000002,"type":"STATE","name":"Bali","latitude":-6.21462,"longitude":106.84513,"order":200},"city":{"id":4000219,"type":"CITY","name":"Buleleng Kab.","latitude":-8.11958,"longitude":115.09234,"order":300}}},{"neighbourhood":{"id":5000013,"type":"NEIGHBOURHOOD","name":"Busungbiu","latitude":-8.3262486,"longitude":114.9279547,"order":400},"parent":{"state":{"id":2000002,"type":"STATE","name":"Bali","latitude":-6.21462,"longitude":106.84513,"order":200},"city":{"id":4000219,"type":"CITY","name":"Buleleng Kab.","latitude":-8.11958,"longitude":115.09234,"order":300}}},{"neighbourhood":{"id":5000014,"type":"NEIGHBOURHOOD","name":"Gerokgak","latitude":-8.2146454,"longitude":114.7855271,"order":400},"parent":{"state":{"id":2000002,"type":"STATE","name":"Bali","latitude":-6.21462,"longitude":106.84513,"order":200},"city":{"id":4000219,"type":"CITY","name":"Buleleng Kab.","latitude":-8.11958,"longitude":115.09234,"order":300}}},{"neighbourhood":{"id":5000015,"type":"NEIGHBOURHOOD","name":"Kubutambahan","latitude":-8.1062097,"longitude":115.2126293,"order":400},"parent":{"state":{"id":2000002,"type":"STATE","name":"Bali","latitude":-6.21462,"longitude":106.84513,"order":200},"city":{"id":4000219,"type":"CITY","name":"Buleleng Kab.","latitude":-8.11958,"longitude":115.09234,"order":300}}},{"neighbourhood":{"id":5000016,"type":"NEIGHBOURHOOD","name":"Sawan","latitude":-8.1587483,"longitude":115.1770586,"order":400},"parent":{"state":{"id":2000002,"type":"STATE","name":"Bali","latitude":-6.21462,"longitude":106.84513,"order":200},"city":{"id":4000219,"type":"CITY","name":"Buleleng Kab.","latitude":-8.11958,"longitude":115.09234,"order":300}}},{"neighbourhood":{"id":5000017,"type":"NEIGHBOURHOOD","name":"Seririt","latitude":-8.2053196,"longitude":114.9279547,"order":400},"parent":{"state":{"id":2000002,"type":"STATE","name":"Bali","latitude":-6.21462,"longitude":106.84513,"order":200},"city":{"id":4000219,"type":"CITY","name":"Buleleng Kab.","latitude":-8.11958,"longitude":115.09234,"order":300}}},{"neighbourhood":{"id":5000017,"type":"NEIGHBOURHOOD","name":"Seririt","latitude":-8.2053196,"longitude":114.9279547,"order":400},"parent":{"state":{"id":2000002,"type":"STATE","name":"Bali","latitude":-6.21462,"longitude":106.84513,"order":200},"city":{"id":4000219,"type":"CITY","name":"Buleleng Kab.","latitude":-8.11958,"longitude":115.09234,"order":300}}},{"neighbourhood":{"id":5000018,"type":"NEIGHBOURHOOD","name":"Sukasada","latitude":-8.1928129,"longitude":115.1177654,"order":400},"parent":{"state":{"id":2000002,"type":"STATE","name":"Bali","latitude":-6.21462,"longitude":106.84513,"order":200},"city":{"id":4000219,"type":"CITY","name":"Buleleng Kab.","latitude":-8.11958,"longitude":115.09234,"order":300}}},{"neighbourhood":{"id":5000018,"type":"NEIGHBOURHOOD","name":"Sukasada","latitude":-8.1928129,"longitude":115.1177654,"order":400},"parent":{"state":{"id":2000002,"type":"STATE","name":"Bali","latitude":-6.21462,"longitude":106.84513,"order":200},"city":{"id":4000219,"type":"CITY","name":"Buleleng Kab.","latitude":-8.11958,"longitude":115.09234,"order":300}}},{"neighbourhood":{"id":5000019,"type":"NEIGHBOURHOOD","name":"Tejakula","latitude":-8.1292662,"longitude":115.319317,"order":400},"parent":{"state":{"id":2000002,"type":"STATE","name":"Bali","latitude":-6.21462,"longitude":106.84513,"order":200},"city":{"id":4000219,"type":"CITY","name":"Buleleng Kab.","latitude":-8.11958,"longitude":115.09234,"order":300}}},{"neighbourhood":{"id":5000020,"type":"NEIGHBOURHOOD","name":"Belah Batuh (Blahbatuh)","latitude":-8.5875952,"longitude":115.3133908,"order":400},"parent":{"state":{"id":2000002,"type":"STATE","name":"Bali","latitude":-6.21462,"longitude":106.84513,"order":200},"city":{"id":4000219,"type":"CITY","name":"Buleleng Kab.","latitude":-8.11958,"longitude":115.09234,"order":300}}},{"neighbourhood":{"id":5000020,"type":"NEIGHBOURHOOD","name":"Belah Batuh (Blahbatuh)","latitude":-8.5875952,"longitude":115.3133908,"order":400},"parent":{"state":{"id":2000002,"type":"STATE","name":"Bali","latitude":-6.21462,"longitude":106.84513,"order":200},"city":{"id":4000219,"type":"CITY","name":"Buleleng Kab.","latitude":-8.11958,"longitude":115.09234,"order":300}}},{"neighbourhood":{"id":5000021,"type":"NEIGHBOURHOOD","name":"Gianyar","latitude":-8.5501978,"longitude":115.3430203,"order":400},"parent":{"state":{"id":2000002,"type":"STATE","name":"Bali","latitude":-6.21462,"longitude":106.84513,"order":200},"city":{"id":4000220,"type":"CITY","name":"Gianyar Kab.","latitude":-8.53897,"longitude":115.3223,"order":300}}},{"neighbourhood":{"id":5000022,"type":"NEIGHBOURHOOD","name":"Payangan","latitude":-8.3954042,"longitude":115.2481959,"order":400},"parent":{"state":{"id":2000002,"type":"STATE","name":"Bali","latitude":-6.21462,"longitude":106.84513,"order":200},"city":{"id":4000220,"type":"CITY","name":"Gianyar Kab.","latitude":-8.53897,"longitude":115.3223,"order":300}}},{"neighbourhood":{"id":5000023,"type":"NEIGHBOURHOOD","name":"Sukawati","latitude":-8.5955412,"longitude":115.2719048,"order":400},"parent":{"state":{"id":2000002,"type":"STATE","name":"Bali","latitude":-6.21462,"longitude":106.84513,"order":200},"city":{"id":4000220,"type":"CITY","name":"Gianyar Kab.","latitude":-8.53897,"longitude":115.3223,"order":300}}},{"neighbourhood":{"id":5000024,"type":"NEIGHBOURHOOD","name":"Tampak Siring","latitude":-8.4390082,"longitude":115.3104277,"order":400},"parent":{"state":{"id":2000002,"type":"STATE","name":"Bali","latitude":-6.21462,"longitude":106.84513,"order":200},"city":{"id":4000220,"type":"CITY","name":"Gianyar Kab.","latitude":-8.53897,"longitude":115.3223,"order":300}}},{"neighbourhood":{"id":5000025,"type":"NEIGHBOURHOOD","name":"Tegallalang","latitude":-8.3921715,"longitude":115.2956118,"order":400},"parent":{"state":{"id":2000002,"type":"STATE","name":"Bali","latitude":-6.21462,"longitude":106.84513,"order":200},"city":{"id":4000220,"type":"CITY","name":"Gianyar Kab.","latitude":-8.53897,"longitude":115.3223,"order":300}}},{"neighbourhood":{"id":5000026,"type":"NEIGHBOURHOOD","name":"Ubud","latitude":-8.5068536,"longitude":115.2624778,"order":400},"parent":{"state":{"id":2000002,"type":"STATE","name":"Bali","latitude":-6.21462,"longitude":106.84513,"order":200},"city":{"id":4000220,"type":"CITY","name":"Gianyar Kab.","latitude":-8.53897,"longitude":115.3223,"order":300}}},{"neighbourhood":{"id":5000027,"type":"NEIGHBOURHOOD","name":"Jembrana","latitude":-8.3233438,"longitude":114.6667939,"order":400},"parent":{"state":{"id":2000002,"type":"STATE","name":"Bali","latitude":-6.21462,"longitude":106.84513,"order":200},"city":{"id":4000221,"type":"CITY","name":"Jembrana Kab.","latitude":-8.36117,"longitude":114.62927,"order":300}}},{"neighbourhood":{"id":5000028,"type":"NEIGHBOURHOOD","name":"Melaya","latitude":-8.2300842,"longitude":114.5480227,"order":400},"parent":{"state":{"id":2000002,"type":"STATE","name":"Bali","latitude":-6.21462,"longitude":106.84513,"order":200},"city":{"id":4000221,"type":"CITY","name":"Jembrana Kab.","latitude":-8.36117,"longitude":114.62927,"order":300}}},{"neighbourhood":{"id":5000029,"type":"NEIGHBOURHOOD","name":"Mendoyo","latitude":-8.317084,"longitude":114.7617836,"order":400},"parent":{"state":{"id":2000002,"type":"STATE","name":"Bali","latitude":-6.21462,"longitude":106.84513,"order":200},"city":{"id":4000221,"type":"CITY","name":"Jembrana Kab.","latitude":-8.36117,"longitude":114.62927,"order":300}}},{"neighbourhood":{"id":5000030,"type":"NEIGHBOURHOOD","name":"Negara","latitude":-8.3544626,"longitude":114.6163207,"order":400},"parent":{"state":{"id":2000002,"type":"STATE","name":"Bali","latitude":-6.21462,"longitude":106.84513,"order":200},"city":{"id":4000221,"type":"CITY","name":"Jembrana Kab.","latitude":-8.36117,"longitude":114.62927,"order":300}}},{"neighbourhood":{"id":5000031,"type":"NEIGHBOURHOOD","name":"Pekutatan","latitude":-8.4101762,"longitude":114.8804853,"order":400},"parent":{"state":{"id":2000002,"type":"STATE","name":"Bali","latitude":-6.21462,"longitude":106.84513,"order":200},"city":{"id":4000221,"type":"CITY","name":"Jembrana Kab.","latitude":-8.36117,"longitude":114.62927,"order":300}}},{"neighbourhood":{"id":5000032,"type":"NEIGHBOURHOOD","name":"Abang","latitude":-8.3693974,"longitude":115.6273131,"order":400},"parent":{"state":{"id":2000002,"type":"STATE","name":"Bali","latitude":-6.21462,"longitude":106.84513,"order":200},"city":{"id":4000222,"type":"CITY","name":"Karangasem Kab.","latitude":-8.44708,"longitude":115.60887,"order":300}}},{"neighbourhood":{"id":5000033,"type":"NEIGHBOURHOOD","name":"Bebandem","latitude":-8.3960371,"longitude":115.5325797,"order":400},"parent":{"state":{"id":2000002,"type":"STATE","name":"Bali","latitude":-6.21462,"longitude":106.84513,"order":200},"city":{"id":4000222,"type":"CITY","name":"Karangasem Kab.","latitude":-8.44708,"longitude":115.60887,"order":300}}},{"neighbourhood":{"id":5000034,"type":"NEIGHBOURHOOD","name":"Karang Asem","latitude":-8.4359528,"longitude":115.609553,"order":400},"parent":{"state":{"id":2000002,"type":"STATE","name":"Bali","latitude":-6.21462,"longitude":106.84513,"order":200},"city":{"id":4000222,"type":"CITY","name":"Karangasem Kab.","latitude":-8.44708,"longitude":115.60887,"order":300}}},{"neighbourhood":{"id":5000035,"type":"NEIGHBOURHOOD","name":"Kubu","latitude":-8.2879419,"longitude":115.4970466,"order":400},"parent":{"state":{"id":2000002,"type":"STATE","name":"Bali","latitude":-6.21462,"longitude":106.84513,"order":200},"city":{"id":4000222,"type":"CITY","name":"Karangasem Kab.","latitude":-8.44708,"longitude":115.60887,"order":300}}},{"neighbourhood":{"id":5000036,"type":"NEIGHBOURHOOD","name":"Manggis","latitude":-8.4765241,"longitude":115.5325797,"order":400},"parent":{"state":{"id":2000002,"type":"STATE","name":"Bali","latitude":-6.21462,"longitude":106.84513,"order":200},"city":{"id":4000222,"type":"CITY","name":"Karangasem Kab.","latitude":-8.44708,"longitude":115.60887,"order":300}}},{"neighbourhood":{"id":5000037,"type":"NEIGHBOURHOOD","name":"Rendang","latitude":-8.3623262,"longitude":115.4378152,"order":400},"parent":{"state":{"id":2000002,"type":"STATE","name":"Bali","latitude":-6.21462,"longitude":106.84513,"order":200},"city":{"id":4000222,"type":"CITY","name":"Karangasem Kab.","latitude":-8.44708,"longitude":115.60887,"order":300}}},{"neighbourhood":{"id":5000038,"type":"NEIGHBOURHOOD","name":"Selat","latitude":-8.4194238,"longitude":115.4852012,"order":400},"parent":{"state":{"id":2000002,"type":"STATE","name":"Bali","latitude":-6.21462,"longitude":106.84513,"order":200},"city":{"id":4000222,"type":"CITY","name":"Karangasem Kab.","latitude":-8.44708,"longitude":115.60887,"order":300}}},{"neighbourhood":{"id":5000039,"type":"NEIGHBOURHOOD","name":"Sidemen","latitude":-8.4831122,"longitude":115.4378152,"order":400},"parent":{"state":{"id":2000002,"type":"STATE","name":"Bali","latitude":-6.21462,"longitude":106.84513,"order":200},"city":{"id":4000222,"type":"CITY","name":"Karangasem Kab.","latitude":-8.44708,"longitude":115.60887,"order":300}}},{"neighbourhood":{"id":5000040,"type":"NEIGHBOURHOOD","name":"Banjarangkan","latitude":-8.5229171,"longitude":115.3726469,"order":400},"parent":{"state":{"id":2000002,"type":"STATE","name":"Bali","latitude":-6.21462,"longitude":106.84513,"order":200},"city":{"id":4000223,"type":"CITY","name":"Klungkung Kab.","latitude":-8.5298,"longitude":115.40498,"order":300}}},{"neighbourhood":{"id":5000041,"type":"NEIGHBOURHOOD","name":"Dawan","latitude":-8.5435854,"longitude":115.4378152,"order":400},"parent":{"state":{"id":2000002,"type":"STATE","name":"Bali","latitude":-6.21462,"longitude":106.84513,"order":200},"city":{"id":4000223,"type":"CITY","name":"Klungkung Kab.","latitude":-8.5298,"longitude":115.40498,"order":300}}},{"neighbourhood":{"id":5000042,"type":"NEIGHBOURHOOD","name":"Klungkung","latitude":-8.5388252,"longitude":115.402367,"order":400},"parent":{"state":{"id":2000002,"type":"STATE","name":"Bali","latitude":-6.21462,"longitude":106.84513,"order":200},"city":{"id":4000223,"type":"CITY","name":"Klungkung Kab.","latitude":-8.5298,"longitude":115.40498,"order":300}}},{"neighbourhood":{"id":5000043,"type":"NEIGHBOURHOOD","name":"Nusapenida","latitude":-8.727807,"longitude":115.5444231,"order":400},"parent":{"state":{"id":2000002,"type":"STATE","name":"Bali","latitude":-6.21462,"longitude":106.84513,"order":200},"city":{"id":4000223,"type":"CITY","name":"Klungkung Kab.","latitude":-8.5298,"longitude":115.40498,"order":300}}},{"neighbourhood":{"id":5000044,"type":"NEIGHBOURHOOD","name":"Baturiti","latitude":-8.3397885,"longitude":115.1770586,"order":400},"parent":{"state":{"id":2000002,"type":"STATE","name":"Bali","latitude":-6.21462,"longitude":106.84513,"order":200},"city":{"id":4000224,"type":"CITY","name":"Tabanan Kab.","latitude":-8.53948,"longitude":115.13354,"order":300}}},{"neighbourhood":{"id":5000045,"type":"NEIGHBOURHOOD","name":"Kediri","latitude":-8.5852167,"longitude":115.1296249,"order":400},"parent":{"state":{"id":2000002,"type":"STATE","name":"Bali","latitude":-6.21462,"longitude":106.84513,"order":200},"city":{"id":4000224,"type":"CITY","name":"Tabanan Kab.","latitude":-8.53948,"longitude":115.13354,"order":300}}},{"neighbourhood":{"id":5000046,"type":"NEIGHBOURHOOD","name":"Kerambitan","latitude":-8.5223784,"longitude":115.0881146,"order":400},"parent":{"state":{"id":2000002,"type":"STATE","name":"Bali","latitude":-6.21462,"longitude":106.84513,"order":200},"city":{"id":4000224,"type":"CITY","name":"Tabanan Kab.","latitude":-8.53948,"longitude":115.13354,"order":300}}},{"neighbourhood":{"id":5000047,"type":"NEIGHBOURHOOD","name":"Marga","latitude":-8.4460246,"longitude":115.1711298,"order":400},"parent":{"state":{"id":2000002,"type":"STATE","name":"Bali","latitude":-6.21462,"longitude":106.84513,"order":200},"city":{"id":4000224,"type":"CITY","name":"Tabanan Kab.","latitude":-8.53948,"longitude":115.13354,"order":300}}},{"neighbourhood":{"id":5000048,"type":"NEIGHBOURHOOD","name":"Penebel","latitude":-8.3941828,"longitude":115.1177654,"order":400},"parent":{"state":{"id":2000002,"type":"STATE","name":"Bali","latitude":-6.21462,"longitude":106.84513,"order":200},"city":{"id":4000224,"type":"CITY","name":"Tabanan Kab.","latitude":-8.53948,"longitude":115.13354,"order":300}}},{"neighbourhood":{"id":5000049,"type":"NEIGHBOURHOOD","name":"Pupuan","latitude":-8.360244,"longitude":115.0228736,"order":400},"parent":{"state":{"id":2000002,"type":"STATE","name":"Bali","latitude":-6.21462,"longitude":106.84513,"order":200},"city":{"id":4000224,"type":"CITY","name":"Tabanan Kab.","latitude":-8.53948,"longitude":115.13354,"order":300}}},{"neighbourhood":{"id":5000050,"type":"NEIGHBOURHOOD","name":"Salemadeg Barat","latitude":-8.453483,"longitude":114.9872821,"order":400},"parent":{"state":{"id":2000002,"type":"STATE","name":"Bali","latitude":-6.21462,"longitude":106.84513,"order":200},"city":{"id":4000224,"type":"CITY","name":"Tabanan Kab.","latitude":-8.53948,"longitude":115.13354,"order":300}}},{"neighbourhood":{"id":5000051,"type":"NEIGHBOURHOOD","name":"Salemadeg Timur","latitude":-8.4549103,"longitude":115.0406679,"order":400},"parent":{"state":{"id":2000002,"type":"STATE","name":"Bali","latitude":-6.21462,"longitude":106.84513,"order":200},"city":{"id":4000224,"type":"CITY","name":"Tabanan Kab.","latitude":-8.53948,"longitude":115.13354,"order":300}}},{"neighbourhood":{"id":5000052,"type":"NEIGHBOURHOOD","name":"Selemadeg","latitude":-8.4549103,"longitude":115.0406679,"order":400},"parent":{"state":{"id":2000002,"type":"STATE","name":"Bali","latitude":-6.21462,"longitude":106.84513,"order":200},"city":{"id":4000224,"type":"CITY","name":"Tabanan Kab.","latitude":-8.53948,"longitude":115.13354,"order":300}}},{"neighbourhood":{"id":5000053,"type":"NEIGHBOURHOOD","name":"Tabanan","latitude":-8.5401416,"longitude":115.1236952,"order":400},"parent":{"state":{"id":2000002,"type":"STATE","name":"Bali","latitude":-6.21462,"longitude":106.84513,"order":200},"city":{"id":4000224,"type":"CITY","name":"Tabanan Kab.","latitude":-8.53948,"longitude":115.13354,"order":300}}},{"neighbourhood":{"id":5000054,"type":"NEIGHBOURHOOD","name":"Denpasar Barat","latitude":-8.6666464,"longitude":115.1948445,"order":400},"parent":{"state":{"id":2000002,"type":"STATE","name":"Bali","latitude":-6.21462,"longitude":106.84513,"order":200},"city":{"id":4000225,"type":"CITY","name":"Denpasar Kota","latitude":-8.66046,"longitude":115.21363,"order":300}}},{"neighbourhood":{"id":5000055,"type":"NEIGHBOURHOOD","name":"Denpasar Selatan","latitude":-8.6983113,"longitude":115.2481959,"order":400},"parent":{"state":{"id":2000002,"type":"STATE","name":"Bali","latitude":-6.21462,"longitude":106.84513,"order":200},"city":{"id":4000225,"type":"CITY","name":"Denpasar Kota","latitude":-8.66046,"longitude":115.21363,"order":300}}},{"neighbourhood":{"id":5000056,"type":"NEIGHBOURHOOD","name":"Denpasar Timur","latitude":-8.6430942,"longitude":115.2422684,"order":400},"parent":{"state":{"id":2000002,"type":"STATE","name":"Bali","latitude":-6.21462,"longitude":106.84513,"order":200},"city":{"id":4000225,"type":"CITY","name":"Denpasar Kota","latitude":-8.66046,"longitude":115.21363,"order":300}}},{"neighbourhood":{"id":5000057,"type":"NEIGHBOURHOOD","name":"Denpasar Utara","latitude":-8.6253583,"longitude":115.2067011,"order":400},"parent":{"state":{"id":2000002,"type":"STATE","name":"Bali","latitude":-6.21462,"longitude":106.84513,"order":200},"city":{"id":4000225,"type":"CITY","name":"Denpasar Kota","latitude":-8.66046,"longitude":115.21363,"order":300}}},{"neighbourhood":{"id":5000058,"type":"NEIGHBOURHOOD","name":"Bakam","latitude":-1.9314325,"longitude":105.8525154,"order":400},"parent":{"state":{"id":2000003,"type":"STATE","name":"Bangka Belitung","latitude":-6.21462,"longitude":106.84513,"order":200},"city":{"id":4000394,"type":"CITY","name":"Kab. Bangka","latitude":-1.88176,"longitude":106.10408,"order":300}}},{"neighbourhood":{"id":5000059,"type":"NEIGHBOURHOOD","name":"Belinyu","latitude":-1.6499633,"longitude":105.8290298,"order":400},"parent":{"state":{"id":2000003,"type":"STATE","name":"Bangka Belitung","latitude":-6.21462,"longitude":106.84513,"order":200},"city":{"id":4000394,"type":"CITY","name":"Kab. Bangka","latitude":-1.88176,"longitude":106.10408,"order":300}}},{"neighbourhood":{"id":5000060,"type":"NEIGHBOURHOOD","name":"Mendo Barat","latitude":-2.1954965,"longitude":105.8994956,"order":400},"parent":{"state":{"id":2000003,"type":"STATE","name":"Bangka Belitung","latitude":-6.21462,"longitude":106.84513,"order":200},"city":{"id":4000394,"type":"CITY","name":"Kab. Bangka","latitude":-1.88176,"longitude":106.10408,"order":300}}},{"neighbourhood":{"id":5000061,"type":"NEIGHBOURHOOD","name":"Merawang","latitude":-2.004507,"longitude":106.0875326,"order":400},"parent":{"state":{"id":2000003,"type":"STATE","name":"Bangka Belitung","latitude":-6.21462,"longitude":106.84513,"order":200},"city":{"id":4000394,"type":"CITY","name":"Kab. Bangka","latitude":-1.88176,"longitude":106.10408,"order":300}}},{"neighbourhood":{"id":5000062,"type":"NEIGHBOURHOOD","name":"Pemali","latitude":-1.8919958,"longitude":106.040506,"order":400},"parent":{"state":{"id":2000003,"type":"STATE","name":"Bangka Belitung","latitude":-6.21462,"longitude":106.84513,"order":200},"city":{"id":4000394,"type":"CITY","name":"Kab. Bangka","latitude":-1.88176,"longitude":106.10408,"order":300}}},{"neighbourhood":{"id":5000063,"type":"NEIGHBOURHOOD","name":"Puding Besar","latitude":-2.0446228,"longitude":105.8525154,"order":400},"parent":{"state":{"id":2000003,"type":"STATE","name":"Bangka Belitung","latitude":-6.21462,"longitude":106.84513,"order":200},"city":{"id":4000394,"type":"CITY","name":"Kab. Bangka","latitude":-1.88176,"longitude":106.10408,"order":300}}},{"neighbourhood":{"id":5000064,"type":"NEIGHBOURHOOD","name":"Riau Silip","latitude":-1.7426354,"longitude":105.9464874,"order":400},"parent":{"state":{"id":2000003,"type":"STATE","name":"Bangka Belitung","latitude":-6.21462,"longitude":106.84513,"order":200},"city":{"id":4000394,"type":"CITY","name":"Kab. Bangka","latitude":-1.88176,"longitude":106.10408,"order":300}}},{"neighbourhood":{"id":5000065,"type":"NEIGHBOURHOOD","name":"Sungai Liat","latitude":-1.877183,"longitude":106.1149182,"order":400},"parent":{"state":{"id":2000003,"type":"STATE","name":"Bangka Belitung","latitude":-6.21462,"longitude":106.84513,"order":200},"city":{"id":4000394,"type":"CITY","name":"Kab. Bangka","latitude":-1.88176,"longitude":106.10408,"order":300}}},{"neighbourhood":{"id":5000066,"type":"NEIGHBOURHOOD","name":"Jebus","latitude":-1.7280623,"longitude":105.4536718,"order":400},"parent":{"state":{"id":2000003,"type":"STATE","name":"Bangka Belitung","latitude":-6.21462,"longitude":106.84513,"order":200},"city":{"id":4000395,"type":"CITY","name":"Bangka Barat Kab.","latitude":-2.05488,"longitude":105.20359,"order":300}}},{"neighbourhood":{"id":5000067,"type":"NEIGHBOURHOOD","name":"Kelapa","latitude":-1.8768988,"longitude":105.6412527,"order":400},"parent":{"state":{"id":2000003,"type":"STATE","name":"Bangka Belitung","latitude":-6.21462,"longitude":106.84513,"order":200},"city":{"id":4000395,"type":"CITY","name":"Bangka Barat Kab.","latitude":-2.05488,"longitude":105.20359,"order":300}}},{"neighbourhood":{"id":5000068,"type":"NEIGHBOURHOOD","name":"Mentok (Muntok)","latitude":-2.0651651,"longitude":105.1643012,"order":400},"parent":{"state":{"id":2000003,"type":"STATE","name":"Bangka Belitung","latitude":-6.21462,"longitude":106.84513,"order":200},"city":{"id":4000395,"type":"CITY","name":"Bangka Barat Kab.","latitude":-2.05488,"longitude":105.20359,"order":300}}},{"neighbourhood":{"id":5000069,"type":"NEIGHBOURHOOD","name":"Parittiga","latitude":-1.6333168,"longitude":105.5708865,"order":400},"parent":{"state":{"id":2000003,"type":"STATE","name":"Bangka Belitung","latitude":-6.21462,"longitude":106.84513,"order":200},"city":{"id":4000395,"type":"CITY","name":"Bangka Barat Kab.","latitude":-2.05488,"longitude":105.20359,"order":300}}},{"neighbourhood":{"id":5000070,"type":"NEIGHBOURHOOD","name":"Simpang Teritip","latitude":-1.9549619,"longitude":105.3599568,"order":400},"parent":{"state":{"id":2000003,"type":"STATE","name":"Bangka Belitung","latitude":-6.21462,"longitude":106.84513,"order":200},"city":{"id":4000395,"type":"CITY","name":"Bangka Barat Kab.","latitude":-2.05488,"longitude":105.20359,"order":300}}},{"neighbourhood":{"id":5000071,"type":"NEIGHBOURHOOD","name":"Tempilang","latitude":-2.0465132,"longitude":105.6647142,"order":400},"parent":{"state":{"id":2000003,"type":"STATE","name":"Bangka Belitung","latitude":-6.21462,"longitude":106.84513,"order":200},"city":{"id":4000395,"type":"CITY","name":"Bangka Barat Kab.","latitude":-2.05488,"longitude":105.20359,"order":300}}},{"neighbourhood":{"id":5000072,"type":"NEIGHBOURHOOD","name":"Air Gegas","latitude":-2.7034469,"longitude":106.3934777,"order":400},"parent":{"state":{"id":2000003,"type":"STATE","name":"Bangka Belitung","latitude":-6.21462,"longitude":106.84513,"order":200},"city":{"id":4000396,"type":"CITY","name":"Bangka Selatan Kab.","latitude":-3.01,"longitude":106.47699,"order":300}}},{"neighbourhood":{"id":5000073,"type":"NEIGHBOURHOOD","name":"Kepulauan Pongok","latitude":-2.8753643,"longitude":107.0657549,"order":400},"parent":{"state":{"id":2000003,"type":"STATE","name":"Bangka Belitung","latitude":-6.21462,"longitude":106.84513,"order":200},"city":{"id":4000396,"type":"CITY","name":"Bangka Selatan Kab.","latitude":-3.01,"longitude":106.47699,"order":300}}},{"neighbourhood":{"id":5000074,"type":"NEIGHBOURHOOD","name":"Lepar Pongok","latitude":-2.9458944,"longitude":106.8414374,"order":400},"parent":{"state":{"id":2000003,"type":"STATE","name":"Bangka Belitung","latitude":-6.21462,"longitude":106.84513,"order":200},"city":{"id":4000396,"type":"CITY","name":"Bangka Selatan Kab.","latitude":-3.01,"longitude":106.47699,"order":300}}},{"neighbourhood":{"id":5000075,"type":"NEIGHBOURHOOD","name":"Payung","latitude":-2.6113558,"longitude":106.1345705,"order":400},"parent":{"state":{"id":2000003,"type":"STATE","name":"Bangka Belitung","latitude":-6.21462,"longitude":106.84513,"order":200},"city":{"id":4000396,"type":"CITY","name":"Bangka Selatan Kab.","latitude":-3.01,"longitude":106.47699,"order":300}}},{"neighbourhood":{"id":5000076,"type":"NEIGHBOURHOOD","name":"Pulau Besar","latitude":-2.7840058,"longitude":106.1110501,"order":400},"parent":{"state":{"id":2000003,"type":"STATE","name":"Bangka Belitung","latitude":-6.21462,"longitude":106.84513,"order":200},"city":{"id":4000396,"type":"CITY","name":"Bangka Selatan Kab.","latitude":-3.01,"longitude":106.47699,"order":300}}},{"neighbourhood":{"id":5000077,"type":"NEIGHBOURHOOD","name":"Simpang Rimba","latitude":-2.555571,"longitude":106.0169971,"order":400},"parent":{"state":{"id":2000003,"type":"STATE","name":"Bangka Belitung","latitude":-6.21462,"longitude":106.84513,"order":200},"city":{"id":4000396,"type":"CITY","name":"Bangka Selatan Kab.","latitude":-3.01,"longitude":106.47699,"order":300}}},{"neighbourhood":{"id":5000078,"type":"NEIGHBOURHOOD","name":"Toboali","latitude":-2.9321167,"longitude":106.4877072,"order":400},"parent":{"state":{"id":2000003,"type":"STATE","name":"Bangka Belitung","latitude":-6.21462,"longitude":106.84513,"order":200},"city":{"id":4000396,"type":"CITY","name":"Bangka Selatan Kab.","latitude":-3.01,"longitude":106.47699,"order":300}}},{"neighbourhood":{"id":5000079,"type":"NEIGHBOURHOOD","name":"Tukak Sadai","latitude":-3.0256951,"longitude":106.6527099,"order":400},"parent":{"state":{"id":2000003,"type":"STATE","name":"Bangka Belitung","latitude":-6.21462,"longitude":106.84513,"order":200},"city":{"id":4000396,"type":"CITY","name":"Bangka Selatan Kab.","latitude":-3.01,"longitude":106.47699,"order":300}}},{"neighbourhood":{"id":5000080,"type":"NEIGHBOURHOOD","name":"Koba","latitude":-2.4944583,"longitude":106.3228338,"order":400},"parent":{"state":{"id":2000003,"type":"STATE","name":"Bangka Belitung","latitude":-6.21462,"longitude":106.84513,"order":200},"city":{"id":4000397,"type":"CITY","name":"Bangka Tengah Kab.","latitude":-2.51835,"longitude":106.41755,"order":300}}},{"neighbourhood":{"id":5000081,"type":"NEIGHBOURHOOD","name":"Lubuk Besar","latitude":-2.6050665,"longitude":106.6055534,"order":400},"parent":{"state":{"id":2000003,"type":"STATE","name":"Bangka Belitung","latitude":-6.21462,"longitude":106.84513,"order":200},"city":{"id":4000397,"type":"CITY","name":"Bangka Tengah Kab.","latitude":-2.51835,"longitude":106.41755,"order":300}}},{"neighbourhood":{"id":5000082,"type":"NEIGHBOURHOOD","name":"Namang","latitude":-2.26816,"longitude":106.1816196,"order":400},"parent":{"state":{"id":2000003,"type":"STATE","name":"Bangka Belitung","latitude":-6.21462,"longitude":106.84513,"order":200},"city":{"id":4000397,"type":"CITY","name":"Bangka Tengah Kab.","latitude":-2.51835,"longitude":106.41755,"order":300}}},{"neighbourhood":{"id":5000083,"type":"NEIGHBOURHOOD","name":"Pangkalan Baru","latitude":-2.1929147,"longitude":106.1345705,"order":400},"parent":{"state":{"id":2000003,"type":"STATE","name":"Bangka Belitung","latitude":-6.21462,"longitude":106.84513,"order":200},"city":{"id":4000397,"type":"CITY","name":"Bangka Tengah Kab.","latitude":-2.51835,"longitude":106.41755,"order":300}}},{"neighbourhood":{"id":5000084,"type":"NEIGHBOURHOOD","name":"Simpang Katis","latitude":-2.2788559,"longitude":106.0757749,"order":400},"parent":{"state":{"id":2000003,"type":"STATE","name":"Bangka Belitung","latitude":-6.21462,"longitude":106.84513,"order":200},"city":{"id":4000397,"type":"CITY","name":"Bangka Tengah Kab.","latitude":-2.51835,"longitude":106.41755,"order":300}}},{"neighbourhood":{"id":5000085,"type":"NEIGHBOURHOOD","name":"Sungai Selan","latitude":-2.384753,"longitude":105.986397,"order":400},"parent":{"state":{"id":2000003,"type":"STATE","name":"Bangka Belitung","latitude":-6.21462,"longitude":106.84513,"order":200},"city":{"id":4000397,"type":"CITY","name":"Bangka Tengah Kab.","latitude":-2.51835,"longitude":106.41755,"order":300}}},{"neighbourhood":{"id":5000086,"type":"NEIGHBOURHOOD","name":"Badau","latitude":-2.777613,"longitude":107.8346924,"order":400},"parent":{"state":{"id":2000003,"type":"STATE","name":"Bangka Belitung","latitude":-6.21462,"longitude":106.84513,"order":200},"city":{"id":4000398,"type":"CITY","name":"Belitung Kab.","latitude":-2.73844,"longitude":107.63004,"order":300}}},{"neighbourhood":{"id":5000087,"type":"NEIGHBOURHOOD","name":"Membalong","latitude":-3.0658261,"longitude":107.71625,"order":400},"parent":{"state":{"id":2000003,"type":"STATE","name":"Bangka Belitung","latitude":-6.21462,"longitude":106.84513,"order":200},"city":{"id":4000398,"type":"CITY","name":"Belitung Kab.","latitude":-2.73844,"longitude":107.63004,"order":300}}},{"neighbourhood":{"id":5000088,"type":"NEIGHBOURHOOD","name":"Selat Nasik","latitude":-2.8986998,"longitude":107.4085384,"order":400},"parent":{"state":{"id":2000003,"type":"STATE","name":"Bangka Belitung","latitude":-6.21462,"longitude":106.84513,"order":200},"city":{"id":4000398,"type":"CITY","name":"Belitung Kab.","latitude":-2.73844,"longitude":107.63004,"order":300}}},{"neighbourhood":{"id":5000089,"type":"NEIGHBOURHOOD","name":"Sijuk","latitude":-2.6071144,"longitude":107.811,"order":400},"parent":{"state":{"id":2000003,"type":"STATE","name":"Bangka Belitung","latitude":-6.21462,"longitude":106.84513,"order":200},"city":{"id":4000398,"type":"CITY","name":"Belitung Kab.","latitude":-2.73844,"longitude":107.63004,"order":300}}},{"neighbourhood":{"id":5000090,"type":"NEIGHBOURHOOD","name":"Tanjung Pandan","latitude":-2.7416678,"longitude":107.6529988,"order":400},"parent":{"state":{"id":2000003,"type":"STATE","name":"Bangka Belitung","latitude":-6.21462,"longitude":106.84513,"order":200},"city":{"id":4000398,"type":"CITY","name":"Belitung Kab.","latitude":-2.73844,"longitude":107.63004,"order":300}}},{"neighbourhood":{"id":5000091,"type":"NEIGHBOURHOOD","name":"Damar","latitude":-2.7716449,"longitude":108.214028,"order":400},"parent":{"state":{"id":2000003,"type":"STATE","name":"Bangka Belitung","latitude":-6.21462,"longitude":106.84513,"order":200},"city":{"id":4000399,"type":"CITY","name":"Belitung Timur Kab.","latitude":-2.88493,"longitude":108.24123,"order":300}}},{"neighbourhood":{"id":5000092,"type":"NEIGHBOURHOOD","name":"Dendang","latitude":-2.9674142,"longitude":107.8820831,"order":400},"parent":{"state":{"id":2000003,"type":"STATE","name":"Bangka Belitung","latitude":-6.21462,"longitude":106.84513,"order":200},"city":{"id":4000399,"type":"CITY","name":"Belitung Timur Kab.","latitude":-2.88493,"longitude":108.24123,"order":300}}},{"neighbourhood":{"id":5000093,"type":"NEIGHBOURHOOD","name":"Gantung","latitude":-3.0592898,"longitude":108.0954351,"order":400},"parent":{"state":{"id":2000003,"type":"STATE","name":"Bangka Belitung","latitude":-6.21462,"longitude":106.84513,"order":200},"city":{"id":4000399,"type":"CITY","name":"Belitung Timur Kab.","latitude":-2.88493,"longitude":108.24123,"order":300}}},{"neighbourhood":{"id":5000094,"type":"NEIGHBOURHOOD","name":"Kelapa Kampit","latitude":-2.6984349,"longitude":107.985063,"order":400},"parent":{"state":{"id":2000003,"type":"STATE","name":"Bangka Belitung","latitude":-6.21462,"longitude":106.84513,"order":200},"city":{"id":4000399,"type":"CITY","name":"Belitung Timur Kab.","latitude":-2.88493,"longitude":108.24123,"order":300}}},{"neighbourhood":{"id":5000095,"type":"NEIGHBOURHOOD","name":"Manggar","latitude":-2.8703151,"longitude":108.2792729,"order":400},"parent":{"state":{"id":2000003,"type":"STATE","name":"Bangka Belitung","latitude":-6.21462,"longitude":106.84513,"order":200},"city":{"id":4000399,"type":"CITY","name":"Belitung Timur Kab.","latitude":-2.88493,"longitude":108.24123,"order":300}}},{"neighbourhood":{"id":5000096,"type":"NEIGHBOURHOOD","name":"Simpang Pesak","latitude":-3.1562185,"longitude":108.024301,"order":400},"parent":{"state":{"id":2000003,"type":"STATE","name":"Bangka Belitung","latitude":-6.21462,"longitude":106.84513,"order":200},"city":{"id":4000399,"type":"CITY","name":"Belitung Timur Kab.","latitude":-2.88493,"longitude":108.24123,"order":300}}},{"neighbourhood":{"id":5000097,"type":"NEIGHBOURHOOD","name":"Simpang Renggiang","latitude":-2.9082231,"longitude":108.0005933,"order":400},"parent":{"state":{"id":2000003,"type":"STATE","name":"Bangka Belitung","latitude":-6.21462,"longitude":106.84513,"order":200},"city":{"id":4000399,"type":"CITY","name":"Belitung Timur Kab.","latitude":-2.88493,"longitude":108.24123,"order":300}}},{"neighbourhood":{"id":5000098,"type":"NEIGHBOURHOOD","name":"Bukit Intan","latitude":-2.1265854,"longitude":106.1463317,"order":400},"parent":{"state":{"id":2000003,"type":"STATE","name":"Bangka Belitung","latitude":-6.21462,"longitude":106.84513,"order":200},"city":{"id":4000400,"type":"CITY","name":"Pangkal Pinang Kota","latitude":-2.13126,"longitude":106.11641,"order":300}}},{"neighbourhood":{"id":5000099,"type":"NEIGHBOURHOOD","name":"Gabek","latitude":-2.0939583,"longitude":106.1051705,"order":400},"parent":{"state":{"id":2000003,"type":"STATE","name":"Bangka Belitung","latitude":-6.21462,"longitude":106.84513,"order":200},"city":{"id":4000400,"type":"CITY","name":"Pangkal Pinang Kota","latitude":-2.13126,"longitude":106.11641,"order":300}}},{"neighbourhood":{"id":5000100,"type":"NEIGHBOURHOOD","name":"Gerunggang","latitude":-2.1084391,"longitude":106.0757749,"order":400},"parent":{"state":{"id":2000003,"type":"STATE","name":"Bangka Belitung","latitude":-6.21462,"longitude":106.84513,"order":200},"city":{"id":4000400,"type":"CITY","name":"Pangkal Pinang Kota","latitude":-2.13126,"longitude":106.11641,"order":300}}},{"neighbourhood":{"id":5000101,"type":"NEIGHBOURHOOD","name":"Girimaya","latitude":-2.1434117,"longitude":106.1198699,"order":400},"parent":{"state":{"id":2000003,"type":"STATE","name":"Bangka Belitung","latitude":-6.21462,"longitude":106.84513,"order":200},"city":{"id":4000400,"type":"CITY","name":"Pangkal Pinang Kota","latitude":-2.13126,"longitude":106.11641,"order":300}}},{"neighbourhood":{"id":5000102,"type":"NEIGHBOURHOOD","name":"Pangkal Balam","latitude":-2.1031546,"longitude":106.1286901,"order":400},"parent":{"state":{"id":2000003,"type":"STATE","name":"Bangka Belitung","latitude":-6.21462,"longitude":106.84513,"order":200},"city":{"id":4000400,"type":"CITY","name":"Pangkal Pinang Kota","latitude":-2.13126,"longitude":106.11641,"order":300}}},{"neighbourhood":{"id":5000103,"type":"NEIGHBOURHOOD","name":"Rangkui","latitude":-2.1340845,"longitude":106.1081103,"order":400},"parent":{"state":{"id":2000003,"type":"STATE","name":"Bangka Belitung","latitude":-6.21462,"longitude":106.84513,"order":200},"city":{"id":4000400,"type":"CITY","name":"Pangkal Pinang Kota","latitude":-2.13126,"longitude":106.11641,"order":300}}},{"neighbourhood":{"id":5000104,"type":"NEIGHBOURHOOD","name":"Taman Sari","latitude":-2.1198443,"longitude":106.11399,"order":400},"parent":{"state":{"id":2000003,"type":"STATE","name":"Bangka Belitung","latitude":-6.21462,"longitude":106.84513,"order":200},"city":{"id":4000400,"type":"CITY","name":"Pangkal Pinang Kota","latitude":-2.13126,"longitude":106.11641,"order":300}}},{"neighbourhood":{"id":5000105,"type":"NEIGHBOURHOOD","name":"Banjarsari","latitude":-6.6042347,"longitude":105.981739,"order":400},"parent":{"state":{"id":2000004,"type":"STATE","name":"Banten","latitude":-6.21462,"longitude":106.84513,"order":200},"city":{"id":4000073,"type":"CITY","name":"Lebak Kab.","latitude":-6.6325,"longitude":106.21103,"order":300}}},{"neighbourhood":{"id":5000106,"type":"NEIGHBOURHOOD","name":"Bayah","latitude":-6.9239868,"longitude":106.3110622,"order":400},"parent":{"state":{"id":2000004,"type":"STATE","name":"Banten","latitude":-6.21462,"longitude":106.84513,"order":200},"city":{"id":4000073,"type":"CITY","name":"Lebak Kab.","latitude":-6.6325,"longitude":106.21103,"order":300}}},{"neighbourhood":{"id":5000107,"type":"NEIGHBOURHOOD","name":"Bojongmanik","latitude":-6.5774233,"longitude":106.1698563,"order":400},"parent":{"state":{"id":2000004,"type":"STATE","name":"Banten","latitude":-6.21462,"longitude":106.84513,"order":200},"city":{"id":4000073,"type":"CITY","name":"Lebak Kab.","latitude":-6.6325,"longitude":106.21103,"order":300}}},{"neighbourhood":{"id":5000108,"type":"NEIGHBOURHOOD","name":"Cibadak","latitude":-6.3339638,"longitude":106.2227968,"order":400},"parent":{"state":{"id":2000004,"type":"STATE","name":"Banten","latitude":-6.21462,"longitude":106.84513,"order":200},"city":{"id":4000073,"type":"CITY","name":"Lebak Kab.","latitude":-6.6325,"longitude":106.21103,"order":300}}},{"neighbourhood":{"id":5000109,"type":"NEIGHBOURHOOD","name":"Cibeber","latitude":-6.7874287,"longitude":106.3699271,"order":400},"parent":{"state":{"id":2000004,"type":"STATE","name":"Banten","latitude":-6.21462,"longitude":106.84513,"order":200},"city":{"id":4000073,"type":"CITY","name":"Lebak Kab.","latitude":-6.6325,"longitude":106.21103,"order":300}}},{"neighbourhood":{"id":5000110,"type":"NEIGHBOURHOOD","name":"Cigemblong","latitude":-6.7425823,"longitude":106.1698563,"order":400},"parent":{"state":{"id":2000004,"type":"STATE","name":"Banten","latitude":-6.21462,"longitude":106.84513,"order":200},"city":{"id":4000073,"type":"CITY","name":"Lebak Kab.","latitude":-6.6325,"longitude":106.21103,"order":300}}},{"neighbourhood":{"id":5000111,"type":"NEIGHBOURHOOD","name":"Cihara","latitude":-6.8269341,"longitude":106.1228099,"order":400},"parent":{"state":{"id":2000004,"type":"STATE","name":"Banten","latitude":-6.21462,"longitude":106.84513,"order":200},"city":{"id":4000073,"type":"CITY","name":"Lebak Kab.","latitude":-6.6325,"longitude":106.21103,"order":300}}},{"neighbourhood":{"id":5000112,"type":"NEIGHBOURHOOD","name":"Cijaku","latitude":-6.7159177,"longitude":106.040506,"order":400},"parent":{"state":{"id":2000004,"type":"STATE","name":"Banten","latitude":-6.21462,"longitude":106.84513,"order":200},"city":{"id":4000073,"type":"CITY","name":"Lebak Kab.","latitude":-6.6325,"longitude":106.21103,"order":300}}},{"neighbourhood":{"id":5000113,"type":"NEIGHBOURHOOD","name":"Cikulur","latitude":-6.3929032,"longitude":106.1463317,"order":400},"parent":{"state":{"id":2000004,"type":"STATE","name":"Banten","latitude":-6.21462,"longitude":106.84513,"order":200},"city":{"id":4000073,"type":"CITY","name":"Lebak Kab.","latitude":-6.6325,"longitude":106.21103,"order":300}}},{"neighbourhood":{"id":5000114,"type":"NEIGHBOURHOOD","name":"Cileles","latitude":-6.5079856,"longitude":106.0875326,"order":400},"parent":{"state":{"id":2000004,"type":"STATE","name":"Banten","latitude":-6.21462,"longitude":106.84513,"order":200},"city":{"id":4000073,"type":"CITY","name":"Lebak Kab.","latitude":-6.6325,"longitude":106.21103,"order":300}}},{"neighbourhood":{"id":5000115,"type":"NEIGHBOURHOOD","name":"Cilograng","latitude":-6.9215078,"longitude":106.3817021,"order":400},"parent":{"state":{"id":2000004,"type":"STATE","name":"Banten","latitude":-6.21462,"longitude":106.84513,"order":200},"city":{"id":4000073,"type":"CITY","name":"Lebak Kab.","latitude":-6.6325,"longitude":106.21103,"order":300}}},{"neighbourhood":{"id":5000116,"type":"NEIGHBOURHOOD","name":"Cimarga","latitude":-6.4622218,"longitude":106.22868,"order":400},"parent":{"state":{"id":2000004,"type":"STATE","name":"Banten","latitude":-6.21462,"longitude":106.84513,"order":200},"city":{"id":4000073,"type":"CITY","name":"Lebak Kab.","latitude":-6.6325,"longitude":106.21103,"order":300}}},{"neighbourhood":{"id":5000117,"type":"NEIGHBOURHOOD","name":"Cipanas","latitude":-6.5505807,"longitude":106.3581527,"order":400},"parent":{"state":{"id":2000004,"type":"STATE","name":"Banten","latitude":-6.21462,"longitude":106.84513,"order":200},"city":{"id":4000073,"type":"CITY","name":"Lebak Kab.","latitude":-6.6325,"longitude":106.21103,"order":300}}},{"neighbourhood":{"id":5000118,"type":"NEIGHBOURHOOD","name":"Cirinten","latitude":-6.640089,"longitude":106.1463317,"order":400},"parent":{"state":{"id":2000004,"type":"STATE","name":"Banten","latitude":-6.21462,"longitude":106.84513,"order":200},"city":{"id":4000073,"type":"CITY","name":"Lebak Kab.","latitude":-6.6325,"longitude":106.21103,"order":300}}},{"neighbourhood":{"id":5000119,"type":"NEIGHBOURHOOD","name":"Curugbitung","latitude":-6.4256189,"longitude":106.4052541,"order":400},"parent":{"state":{"id":2000004,"type":"STATE","name":"Banten","latitude":-6.21462,"longitude":106.84513,"order":200},"city":{"id":4000073,"type":"CITY","name":"Lebak Kab.","latitude":-6.6325,"longitude":106.21103,"order":300}}},{"neighbourhood":{"id":5000120,"type":"NEIGHBOURHOOD","name":"Gunung Kencana","latitude":-6.6019221,"longitude":106.0522616,"order":400},"parent":{"state":{"id":2000004,"type":"STATE","name":"Banten","latitude":-6.21462,"longitude":106.84513,"order":200},"city":{"id":4000073,"type":"CITY","name":"Lebak Kab.","latitude":-6.6325,"longitude":106.21103,"order":300}}},{"neighbourhood":{"id":5000121,"type":"NEIGHBOURHOOD","name":"Kalanganyar","latitude":-6.3849323,"longitude":106.2345633,"order":400},"parent":{"state":{"id":2000004,"type":"STATE","name":"Banten","latitude":-6.21462,"longitude":106.84513,"order":200},"city":{"id":4000073,"type":"CITY","name":"Lebak Kab.","latitude":-6.6325,"longitude":106.21103,"order":300}}},{"neighbourhood":{"id":5000122,"type":"NEIGHBOURHOOD","name":"Lebakgedong","latitude":-6.6165483,"longitude":106.3875898,"order":400},"parent":{"state":{"id":2000004,"type":"STATE","name":"Banten","latitude":-6.21462,"longitude":106.84513,"order":200},"city":{"id":4000073,"type":"CITY","name":"Lebak Kab.","latitude":-6.6325,"longitude":106.21103,"order":300}}},{"neighbourhood":{"id":5000123,"type":"NEIGHBOURHOOD","name":"Leuwidamar","latitude":-6.5445698,"longitude":106.22868,"order":400},"parent":{"state":{"id":2000004,"type":"STATE","name":"Banten","latitude":-6.21462,"longitude":106.84513,"order":200},"city":{"id":4000073,"type":"CITY","name":"Lebak Kab.","latitude":-6.6325,"longitude":106.21103,"order":300}}},{"neighbourhood":{"id":5000124,"type":"NEIGHBOURHOOD","name":"Maja","latitude":-6.365542,"longitude":106.3581527,"order":400},"parent":{"state":{"id":2000004,"type":"STATE","name":"Banten","latitude":-6.21462,"longitude":106.84513,"order":200},"city":{"id":4000073,"type":"CITY","name":"Lebak Kab.","latitude":-6.6325,"longitude":106.21103,"order":300}}},{"neighbourhood":{"id":5000125,"type":"NEIGHBOURHOOD","name":"Malingping","latitude":-6.7688124,"longitude":106.0052437,"order":400},"parent":{"state":{"id":2000004,"type":"STATE","name":"Banten","latitude":-6.21462,"longitude":106.84513,"order":200},"city":{"id":4000073,"type":"CITY","name":"Lebak Kab.","latitude":-6.6325,"longitude":106.21103,"order":300}}},{"neighbourhood":{"id":5000126,"type":"NEIGHBOURHOOD","name":"Muncang","latitude":-6.5529254,"longitude":106.287521,"order":400},"parent":{"state":{"id":2000004,"type":"STATE","name":"Banten","latitude":-6.21462,"longitude":106.84513,"order":200},"city":{"id":4000073,"type":"CITY","name":"Lebak Kab.","latitude":-6.6325,"longitude":106.21103,"order":300}}},{"neighbourhood":{"id":5000127,"type":"NEIGHBOURHOOD","name":"Panggarangan","latitude":-6.8336582,"longitude":106.22868,"order":400},"parent":{"state":{"id":2000004,"type":"STATE","name":"Banten","latitude":-6.21462,"longitude":106.84513,"order":200},"city":{"id":4000073,"type":"CITY","name":"Lebak Kab.","latitude":-6.6325,"longitude":106.21103,"order":300}}},{"neighbourhood":{"id":5000128,"type":"NEIGHBOURHOOD","name":"Rangkasbitung","latitude":-6.3472894,"longitude":106.287521,"order":400},"parent":{"state":{"id":2000004,"type":"STATE","name":"Banten","latitude":-6.21462,"longitude":106.84513,"order":200},"city":{"id":4000073,"type":"CITY","name":"Lebak Kab.","latitude":-6.6325,"longitude":106.21103,"order":300}}},{"neighbourhood":{"id":5000129,"type":"NEIGHBOURHOOD","name":"Sajira","latitude":-6.4690448,"longitude":106.3346061,"order":400},"parent":{"state":{"id":2000004,"type":"STATE","name":"Banten","latitude":-6.21462,"longitude":106.84513,"order":200},"city":{"id":4000073,"type":"CITY","name":"Lebak Kab.","latitude":-6.6325,"longitude":106.21103,"order":300}}},{"neighbourhood":{"id":5000130,"type":"NEIGHBOURHOOD","name":"Sobang","latitude":-6.6552111,"longitude":106.3110622,"order":400},"parent":{"state":{"id":2000004,"type":"STATE","name":"Banten","latitude":-6.21462,"longitude":106.84513,"order":200},"city":{"id":4000073,"type":"CITY","name":"Lebak Kab.","latitude":-6.6325,"longitude":106.21103,"order":300}}},{"neighbourhood":{"id":5000131,"type":"NEIGHBOURHOOD","name":"Wanasalam","latitude":-6.7719592,"longitude":105.9112424,"order":400},"parent":{"state":{"id":2000004,"type":"STATE","name":"Banten","latitude":-6.21462,"longitude":106.84513,"order":200},"city":{"id":4000073,"type":"CITY","name":"Lebak Kab.","latitude":-6.6325,"longitude":106.21103,"order":300}}},{"neighbourhood":{"id":5000132,"type":"NEIGHBOURHOOD","name":"Warunggunung","latitude":-6.3305165,"longitude":106.1698563,"order":400},"parent":{"state":{"id":2000004,"type":"STATE","name":"Banten","latitude":-6.21462,"longitude":106.84513,"order":200},"city":{"id":4000073,"type":"CITY","name":"Lebak Kab.","latitude":-6.6325,"longitude":106.21103,"order":300}}},{"neighbourhood":{"id":5000133,"type":"NEIGHBOURHOOD","name":"Angsana","latitude":-6.6088273,"longitude":105.8407722,"order":400},"parent":{"state":{"id":2000004,"type":"STATE","name":"Banten","latitude":-6.21462,"longitude":106.84513,"order":200},"city":{"id":4000498,"type":"CITY","name":"Pandeglang Kab.","latitude":-6.32664,"longitude":106.11657,"order":300}}},{"neighbourhood":{"id":5000134,"type":"NEIGHBOURHOOD","name":"Banjar","latitude":-6.3788012,"longitude":106.1051705,"order":400},"parent":{"state":{"id":2000004,"type":"STATE","name":"Banten","latitude":-6.21462,"longitude":106.84513,"order":200},"city":{"id":4000498,"type":"CITY","name":"Pandeglang Kab.","latitude":-6.32664,"longitude":106.11657,"order":300}}},{"neighbourhood":{"id":5000135,"type":"NEIGHBOURHOOD","name":"Bojong","latitude":-6.4599022,"longitude":105.981739,"order":400},"parent":{"state":{"id":2000004,"type":"STATE","name":"Banten","latitude":-6.21462,"longitude":106.84513,"order":200},"city":{"id":4000498,"type":"CITY","name":"Pandeglang Kab.","latitude":-6.32664,"longitude":106.11657,"order":300}}},{"neighbourhood":{"id":5000136,"type":"NEIGHBOURHOOD","name":"Cadasari","latitude":-6.2658492,"longitude":106.1051705,"order":400},"parent":{"state":{"id":2000004,"type":"STATE","name":"Banten","latitude":-6.21462,"longitude":106.84513,"order":200},"city":{"id":4000498,"type":"CITY","name":"Pandeglang Kab.","latitude":-6.32664,"longitude":106.11657,"order":300}}},{"neighbourhood":{"id":5000137,"type":"NEIGHBOURHOOD","name":"Carita","latitude":-6.2579364,"longitude":105.8642593,"order":400},"parent":{"state":{"id":2000004,"type":"STATE","name":"Banten","latitude":-6.21462,"longitude":106.84513,"order":200},"city":{"id":4000498,"type":"CITY","name":"Pandeglang Kab.","latitude":-6.32664,"longitude":106.11657,"order":300}}},{"neighbourhood":{"id":5000138,"type":"NEIGHBOURHOOD","name":"Cibaliung","latitude":-6.7252509,"longitude":105.7585908,"order":400},"parent":{"state":{"id":2000004,"type":"STATE","name":"Banten","latitude":-6.21462,"longitude":106.84513,"order":200},"city":{"id":4000498,"type":"CITY","name":"Pandeglang Kab.","latitude":-6.32664,"longitude":106.11657,"order":300}}},{"neighbourhood":{"id":5000139,"type":"NEIGHBOURHOOD","name":"Cibitung","latitude":-6.8096765,"longitude":105.7116464,"order":400},"parent":{"state":{"id":2000004,"type":"STATE","name":"Banten","latitude":-6.21462,"longitude":106.84513,"order":200},"city":{"id":4000498,"type":"CITY","name":"Pandeglang Kab.","latitude":-6.32664,"longitude":106.11657,"order":300}}},{"neighbourhood":{"id":5000140,"type":"NEIGHBOURHOOD","name":"Cigeulis","latitude":-6.6041709,"longitude":105.6647142,"order":400},"parent":{"state":{"id":2000004,"type":"STATE","name":"Banten","latitude":-6.21462,"longitude":106.84513,"order":200},"city":{"id":4000498,"type":"CITY","name":"Pandeglang Kab.","latitude":-6.32664,"longitude":106.11657,"order":300}}},{"neighbourhood":{"id":5000141,"type":"NEIGHBOURHOOD","name":"Cikeudal (Cikedal)","latitude":-6.3858717,"longitude":105.8818766,"order":400},"parent":{"state":{"id":2000004,"type":"STATE","name":"Banten","latitude":-6.21462,"longitude":106.84513,"order":200},"city":{"id":4000498,"type":"CITY","name":"Pandeglang Kab.","latitude":-6.32664,"longitude":106.11657,"order":300}}},{"neighbourhood":{"id":5000142,"type":"NEIGHBOURHOOD","name":"Cikeusik","latitude":-6.7221594,"longitude":105.8525154,"order":400},"parent":{"state":{"id":2000004,"type":"STATE","name":"Banten","latitude":-6.21462,"longitude":106.84513,"order":200},"city":{"id":4000498,"type":"CITY","name":"Pandeglang Kab.","latitude":-6.32664,"longitude":106.11657,"order":300}}},{"neighbourhood":{"id":5000143,"type":"NEIGHBOURHOOD","name":"Cimanggu","latitude":-6.7390633,"longitude":105.652983,"order":400},"parent":{"state":{"id":2000004,"type":"STATE","name":"Banten","latitude":-6.21462,"longitude":106.84513,"order":200},"city":{"id":4000498,"type":"CITY","name":"Pandeglang Kab.","latitude":-6.32664,"longitude":106.11657,"order":300}}},{"neighbourhood":{"id":5000144,"type":"NEIGHBOURHOOD","name":"Cimanuk","latitude":-6.3502085,"longitude":106.0346285,"order":400},"parent":{"state":{"id":2000004,"type":"STATE","name":"Banten","latitude":-6.21462,"longitude":106.84513,"order":200},"city":{"id":4000498,"type":"CITY","name":"Pandeglang Kab.","latitude":-6.32664,"longitude":106.11657,"order":300}}},{"neighbourhood":{"id":5000145,"type":"NEIGHBOURHOOD","name":"Cipeucang","latitude":-6.371137,"longitude":106.022874,"order":400},"parent":{"state":{"id":2000004,"type":"STATE","name":"Banten","latitude":-6.21462,"longitude":106.84513,"order":200},"city":{"id":4000498,"type":"CITY","name":"Pandeglang Kab.","latitude":-6.32664,"longitude":106.11657,"order":300}}},{"neighbourhood":{"id":5000146,"type":"NEIGHBOURHOOD","name":"Cisata","latitude":-6.4156324,"longitude":105.9171161,"order":400},"parent":{"state":{"id":2000004,"type":"STATE","name":"Banten","latitude":-6.21462,"longitude":106.84513,"order":200},"city":{"id":4000498,"type":"CITY","name":"Pandeglang Kab.","latitude":-6.32664,"longitude":106.11657,"order":300}}},{"neighbourhood":{"id":5000147,"type":"NEIGHBOURHOOD","name":"Jiput","latitude":-6.318846,"longitude":105.8877494,"order":400},"parent":{"state":{"id":2000004,"type":"STATE","name":"Banten","latitude":-6.21462,"longitude":106.84513,"order":200},"city":{"id":4000498,"type":"CITY","name":"Pandeglang Kab.","latitude":-6.32664,"longitude":106.11657,"order":300}}},{"neighbourhood":{"id":5000148,"type":"NEIGHBOURHOOD","name":"Kaduhejo","latitude":-6.3186477,"longitude":106.0581397,"order":400},"parent":{"state":{"id":2000004,"type":"STATE","name":"Banten","latitude":-6.21462,"longitude":106.84513,"order":200},"city":{"id":4000498,"type":"CITY","name":"Pandeglang Kab.","latitude":-6.32664,"longitude":106.11657,"order":300}}},{"neighbourhood":{"id":5000149,"type":"NEIGHBOURHOOD","name":"Karang Tanjung","latitude":-6.2863702,"longitude":106.1051705,"order":400},"parent":{"state":{"id":2000004,"type":"STATE","name":"Banten","latitude":-6.21462,"longitude":106.84513,"order":200},"city":{"id":4000498,"type":"CITY","name":"Pandeglang Kab.","latitude":-6.32664,"longitude":106.11657,"order":300}}},{"neighbourhood":{"id":5000150,"type":"NEIGHBOURHOOD","name":"Koroncong","latitude":-6.3160495,"longitude":106.140451,"order":400},"parent":{"state":{"id":2000004,"type":"STATE","name":"Banten","latitude":-6.21462,"longitude":106.84513,"order":200},"city":{"id":4000498,"type":"CITY","name":"Pandeglang Kab.","latitude":-6.32664,"longitude":106.11657,"order":300}}},{"neighbourhood":{"id":5000151,"type":"NEIGHBOURHOOD","name":"Labuan","latitude":-6.3667673,"longitude":105.8349009,"order":400},"parent":{"state":{"id":2000004,"type":"STATE","name":"Banten","latitude":-6.21462,"longitude":106.84513,"order":200},"city":{"id":4000498,"type":"CITY","name":"Pandeglang Kab.","latitude":-6.32664,"longitude":106.11657,"order":300}}},{"neighbourhood":{"id":5000152,"type":"NEIGHBOURHOOD","name":"Majasari","latitude":-6.307639,"longitude":106.0816536,"order":400},"parent":{"state":{"id":2000004,"type":"STATE","name":"Banten","latitude":-6.21462,"longitude":106.84513,"order":200},"city":{"id":4000498,"type":"CITY","name":"Pandeglang Kab.","latitude":-6.32664,"longitude":106.11657,"order":300}}},{"neighbourhood":{"id":5000153,"type":"NEIGHBOURHOOD","name":"Mandalawangi","latitude":-6.295369,"longitude":105.981739,"order":400},"parent":{"state":{"id":2000004,"type":"STATE","name":"Banten","latitude":-6.21462,"longitude":106.84513,"order":200},"city":{"id":4000498,"type":"CITY","name":"Pandeglang Kab.","latitude":-6.32664,"longitude":106.11657,"order":300}}},{"neighbourhood":{"id":5000154,"type":"NEIGHBOURHOOD","name":"Mekarjaya","latitude":-6.3951587,"longitude":106.0757749,"order":400},"parent":{"state":{"id":2000004,"type":"STATE","name":"Banten","latitude":-6.21462,"longitude":106.84513,"order":200},"city":{"id":4000498,"type":"CITY","name":"Pandeglang Kab.","latitude":-6.32664,"longitude":106.11657,"order":300}}},{"neighbourhood":{"id":5000155,"type":"NEIGHBOURHOOD","name":"Menes","latitude":-6.3843918,"longitude":105.9288641,"order":400},"parent":{"state":{"id":2000004,"type":"STATE","name":"Banten","latitude":-6.21462,"longitude":106.84513,"order":200},"city":{"id":4000498,"type":"CITY","name":"Pandeglang Kab.","latitude":-6.32664,"longitude":106.11657,"order":300}}},{"neighbourhood":{"id":5000156,"type":"NEIGHBOURHOOD","name":"Munjul","latitude":-6.6379039,"longitude":105.8994956,"order":400},"parent":{"state":{"id":2000004,"type":"STATE","name":"Banten","latitude":-6.21462,"longitude":106.84513,"order":200},"city":{"id":4000498,"type":"CITY","name":"Pandeglang Kab.","latitude":-6.32664,"longitude":106.11657,"order":300}}},{"neighbourhood":{"id":5000157,"type":"NEIGHBOURHOOD","name":"Pagelaran","latitude":-6.4224514,"longitude":105.8642593,"order":400},"parent":{"state":{"id":2000004,"type":"STATE","name":"Banten","latitude":-6.21462,"longitude":106.84513,"order":200},"city":{"id":4000498,"type":"CITY","name":"Pandeglang Kab.","latitude":-6.32664,"longitude":106.11657,"order":300}}},{"neighbourhood":{"id":5000158,"type":"NEIGHBOURHOOD","name":"Pandeglang","latitude":-6.7482706,"longitude":105.6881788,"order":400},"parent":{"state":{"id":2000004,"type":"STATE","name":"Banten","latitude":-6.21462,"longitude":106.84513,"order":200},"city":{"id":4000498,"type":"CITY","name":"Pandeglang Kab.","latitude":-6.32664,"longitude":106.11657,"order":300}}},{"neighbourhood":{"id":5000159,"type":"NEIGHBOURHOOD","name":"Panimbang","latitude":-6.5322356,"longitude":105.652983,"order":400},"parent":{"state":{"id":2000004,"type":"STATE","name":"Banten","latitude":-6.21462,"longitude":106.84513,"order":200},"city":{"id":4000498,"type":"CITY","name":"Pandeglang Kab.","latitude":-6.32664,"longitude":106.11657,"order":300}}},{"neighbourhood":{"id":5000160,"type":"NEIGHBOURHOOD","name":"Patia","latitude":-6.4835104,"longitude":105.8877494,"order":400},"parent":{"state":{"id":2000004,"type":"STATE","name":"Banten","latitude":-6.21462,"longitude":106.84513,"order":200},"city":{"id":4000498,"type":"CITY","name":"Pandeglang Kab.","latitude":-6.32664,"longitude":106.11657,"order":300}}},{"neighbourhood":{"id":5000161,"type":"NEIGHBOURHOOD","name":"Picung","latitude":-6.5018619,"longitude":105.9582372,"order":400},"parent":{"state":{"id":2000004,"type":"STATE","name":"Banten","latitude":-6.21462,"longitude":106.84513,"order":200},"city":{"id":4000498,"type":"CITY","name":"Pandeglang Kab.","latitude":-6.32664,"longitude":106.11657,"order":300}}},{"neighbourhood":{"id":5000162,"type":"NEIGHBOURHOOD","name":"Pulosari","latitude":-6.3379347,"longitude":105.9347384,"order":400},"parent":{"state":{"id":2000004,"type":"STATE","name":"Banten","latitude":-6.21462,"longitude":106.84513,"order":200},"city":{"id":4000498,"type":"CITY","name":"Pandeglang Kab.","latitude":-6.32664,"longitude":106.11657,"order":300}}},{"neighbourhood":{"id":5000163,"type":"NEIGHBOURHOOD","name":"Saketi","latitude":-6.3981498,"longitude":105.981739,"order":400},"parent":{"state":{"id":2000004,"type":"STATE","name":"Banten","latitude":-6.21462,"longitude":106.84513,"order":200},"city":{"id":4000498,"type":"CITY","name":"Pandeglang Kab.","latitude":-6.32664,"longitude":106.11657,"order":300}}},{"neighbourhood":{"id":5000164,"type":"NEIGHBOURHOOD","name":"Sindangresmi","latitude":-6.5446168,"longitude":105.9112424,"order":400},"parent":{"state":{"id":2000004,"type":"STATE","name":"Banten","latitude":-6.21462,"longitude":106.84513,"order":200},"city":{"id":4000498,"type":"CITY","name":"Pandeglang Kab.","latitude":-6.32664,"longitude":106.11657,"order":300}}},{"neighbourhood":{"id":5000165,"type":"NEIGHBOURHOOD","name":"Sobang","latitude":-6.6111074,"longitude":105.7703287,"order":400},"parent":{"state":{"id":2000004,"type":"STATE","name":"Banten","latitude":-6.21462,"longitude":106.84513,"order":200},"city":{"id":4000498,"type":"CITY","name":"Pandeglang Kab.","latitude":-6.32664,"longitude":106.11657,"order":300}}},{"neighbourhood":{"id":5000166,"type":"NEIGHBOURHOOD","name":"Sukaresmi","latitude":-6.4903495,"longitude":105.8349009,"order":400},"parent":{"state":{"id":2000004,"type":"STATE","name":"Banten","latitude":-6.21462,"longitude":106.84513,"order":200},"city":{"id":4000498,"type":"CITY","name":"Pandeglang Kab.","latitude":-6.32664,"longitude":106.11657,"order":300}}},{"neighbourhood":{"id":5000167,"type":"NEIGHBOURHOOD","name":"Sumur","latitude":-6.778916,"longitude":105.3833808,"order":400},"parent":{"state":{"id":2000004,"type":"STATE","name":"Banten","latitude":-6.21462,"longitude":106.84513,"order":200},"city":{"id":4000498,"type":"CITY","name":"Pandeglang Kab.","latitude":-6.32664,"longitude":106.11657,"order":300}}},{"neighbourhood":{"id":5000168,"type":"NEIGHBOURHOOD","name":"Anyar","latitude":-6.0924606,"longitude":105.9112424,"order":400},"parent":{"state":{"id":2000004,"type":"STATE","name":"Banten","latitude":-6.21462,"longitude":106.84513,"order":200},"city":{"id":4000075,"type":"CITY","name":"Serang Kab.","latitude":-6.0831,"longitude":106.12578,"order":300}}},{"neighbourhood":{"id":5000169,"type":"NEIGHBOURHOOD","name":"Bandung","latitude":-6.218566,"longitude":106.3051766,"order":400},"parent":{"state":{"id":2000004,"type":"STATE","name":"Banten","latitude":-6.21462,"longitude":106.84513,"order":200},"city":{"id":4000075,"type":"CITY","name":"Serang Kab.","latitude":-6.0831,"longitude":106.12578,"order":300}}},{"neighbourhood":{"id":5000170,"type":"NEIGHBOURHOOD","name":"Baros","latitude":-6.2294048,"longitude":106.1228099,"order":400},"parent":{"state":{"id":2000004,"type":"STATE","name":"Banten","latitude":-6.21462,"longitude":106.84513,"order":200},"city":{"id":4000075,"type":"CITY","name":"Serang Kab.","latitude":-6.0831,"longitude":106.12578,"order":300}}},{"neighbourhood":{"id":5000171,"type":"NEIGHBOURHOOD","name":"Binuang","latitude":-6.1352241,"longitude":106.3522658,"order":400},"parent":{"state":{"id":2000004,"type":"STATE","name":"Banten","latitude":-6.21462,"longitude":106.84513,"order":200},"city":{"id":4000075,"type":"CITY","name":"Serang Kab.","latitude":-6.0831,"longitude":106.12578,"order":300}}},{"neighbourhood":{"id":5000172,"type":"NEIGHBOURHOOD","name":"Bojonegara","latitude":-5.9648622,"longitude":106.0757749,"order":400},"parent":{"state":{"id":2000004,"type":"STATE","name":"Banten","latitude":-6.21462,"longitude":106.84513,"order":200},"city":{"id":4000075,"type":"CITY","name":"Serang Kab.","latitude":-6.0831,"longitude":106.12578,"order":300}}},{"neighbourhood":{"id":5000173,"type":"NEIGHBOURHOOD","name":"Carenang (Cerenang)","latitude":-6.0802849,"longitude":106.3110622,"order":400},"parent":{"state":{"id":2000004,"type":"STATE","name":"Banten","latitude":-6.21462,"longitude":106.84513,"order":200},"city":{"id":4000075,"type":"CITY","name":"Serang Kab.","latitude":-6.0831,"longitude":106.12578,"order":300}}},{"neighbourhood":{"id":5000174,"type":"NEIGHBOURHOOD","name":"Cikande","latitude":-6.1810696,"longitude":106.3581527,"order":400},"parent":{"state":{"id":2000004,"type":"STATE","name":"Banten","latitude":-6.21462,"longitude":106.84513,"order":200},"city":{"id":4000075,"type":"CITY","name":"Serang Kab.","latitude":-6.0831,"longitude":106.12578,"order":300}}},{"neighbourhood":{"id":5000175,"type":"NEIGHBOURHOOD","name":"Cikeusal","latitude":-6.1701003,"longitude":106.0522616,"order":400},"parent":{"state":{"id":2000004,"type":"STATE","name":"Banten","latitude":-6.21462,"longitude":106.84513,"order":200},"city":{"id":4000075,"type":"CITY","name":"Serang Kab.","latitude":-6.0831,"longitude":106.12578,"order":300}}},{"neighbourhood":{"id":5000176,"type":"NEIGHBOURHOOD","name":"Cinangka","latitude":-6.1751332,"longitude":105.8877494,"order":400},"parent":{"state":{"id":2000004,"type":"STATE","name":"Banten","latitude":-6.21462,"longitude":106.84513,"order":200},"city":{"id":4000075,"type":"CITY","name":"Serang Kab.","latitude":-6.0831,"longitude":106.12578,"order":300}}},{"neighbourhood":{"id":5000177,"type":"NEIGHBOURHOOD","name":"Ciomas","latitude":-6.2528456,"longitude":106.0287512,"order":400},"parent":{"state":{"id":2000004,"type":"STATE","name":"Banten","latitude":-6.21462,"longitude":106.84513,"order":200},"city":{"id":4000075,"type":"CITY","name":"Serang Kab.","latitude":-6.0831,"longitude":106.12578,"order":300}}},{"neighbourhood":{"id":5000178,"type":"NEIGHBOURHOOD","name":"Ciruas","latitude":-6.0976091,"longitude":106.2463305,"order":400},"parent":{"state":{"id":2000004,"type":"STATE","name":"Banten","latitude":-6.21462,"longitude":106.84513,"order":200},"city":{"id":4000075,"type":"CITY","name":"Serang Kab.","latitude":-6.0831,"longitude":106.12578,"order":300}}},{"neighbourhood":{"id":5000179,"type":"NEIGHBOURHOOD","name":"Gunungsari","latitude":-6.1628683,"longitude":106.0375673,"order":400},"parent":{"state":{"id":2000004,"type":"STATE","name":"Banten","latitude":-6.21462,"longitude":106.84513,"order":200},"city":{"id":4000075,"type":"CITY","name":"Serang Kab.","latitude":-6.0831,"longitude":106.12578,"order":300}}},{"neighbourhood":{"id":5000180,"type":"NEIGHBOURHOOD","name":"Jawilan","latitude":-6.2891735,"longitude":106.3404925,"order":400},"parent":{"state":{"id":2000004,"type":"STATE","name":"Banten","latitude":-6.21462,"longitude":106.84513,"order":200},"city":{"id":4000075,"type":"CITY","name":"Serang Kab.","latitude":-6.0831,"longitude":106.12578,"order":300}}},{"neighbourhood":{"id":5000181,"type":"NEIGHBOURHOOD","name":"Kibin","latitude":-6.1567813,"longitude":106.3169479,"order":400},"parent":{"state":{"id":2000004,"type":"STATE","name":"Banten","latitude":-6.21462,"longitude":106.84513,"order":200},"city":{"id":4000075,"type":"CITY","name":"Serang Kab.","latitude":-6.0831,"longitude":106.12578,"order":300}}},{"neighbourhood":{"id":5000182,"type":"NEIGHBOURHOOD","name":"Kopo","latitude":-6.2777953,"longitude":106.3758145,"order":400},"parent":{"state":{"id":2000004,"type":"STATE","name":"Banten","latitude":-6.21462,"longitude":106.84513,"order":200},"city":{"id":4000075,"type":"CITY","name":"Serang Kab.","latitude":-6.0831,"longitude":106.12578,"order":300}}},{"neighbourhood":{"id":5000183,"type":"NEIGHBOURHOOD","name":"Kragilan","latitude":-6.1423533,"longitude":106.287521,"order":400},"parent":{"state":{"id":2000004,"type":"STATE","name":"Banten","latitude":-6.21462,"longitude":106.84513,"order":200},"city":{"id":4000075,"type":"CITY","name":"Serang Kab.","latitude":-6.0831,"longitude":106.12578,"order":300}}},{"neighbourhood":{"id":5000184,"type":"NEIGHBOURHOOD","name":"Kramatwatu","latitude":-6.045161,"longitude":106.1228099,"order":400},"parent":{"state":{"id":2000004,"type":"STATE","name":"Banten","latitude":-6.21462,"longitude":106.84513,"order":200},"city":{"id":4000075,"type":"CITY","name":"Serang Kab.","latitude":-6.0831,"longitude":106.12578,"order":300}}},{"neighbourhood":{"id":5000185,"type":"NEIGHBOURHOOD","name":"Lebak Wangi","latitude":-6.0787269,"longitude":106.2786937,"order":400},"parent":{"state":{"id":2000004,"type":"STATE","name":"Banten","latitude":-6.21462,"longitude":106.84513,"order":200},"city":{"id":4000075,"type":"CITY","name":"Serang Kab.","latitude":-6.0831,"longitude":106.12578,"order":300}}},{"neighbourhood":{"id":5000186,"type":"NEIGHBOURHOOD","name":"Mancak","latitude":-6.1108068,"longitude":105.981739,"order":400},"parent":{"state":{"id":2000004,"type":"STATE","name":"Banten","latitude":-6.21462,"longitude":106.84513,"order":200},"city":{"id":4000075,"type":"CITY","name":"Serang Kab.","latitude":-6.0831,"longitude":106.12578,"order":300}}},{"neighbourhood":{"id":5000187,"type":"NEIGHBOURHOOD","name":"Pabuaran","latitude":-6.1944454,"longitude":106.0934117,"order":400},"parent":{"state":{"id":2000004,"type":"STATE","name":"Banten","latitude":-6.21462,"longitude":106.84513,"order":200},"city":{"id":4000075,"type":"CITY","name":"Serang Kab.","latitude":-6.0831,"longitude":106.12578,"order":300}}},{"neighbourhood":{"id":5000188,"type":"NEIGHBOURHOOD","name":"Padarincang","latitude":-6.2139945,"longitude":105.9582372,"order":400},"parent":{"state":{"id":2000004,"type":"STATE","name":"Banten","latitude":-6.21462,"longitude":106.84513,"order":200},"city":{"id":4000075,"type":"CITY","name":"Serang Kab.","latitude":-6.0831,"longitude":106.12578,"order":300}}},{"neighbourhood":{"id":5000189,"type":"NEIGHBOURHOOD","name":"Pamarayan","latitude":-6.2849857,"longitude":106.3110622,"order":400},"parent":{"state":{"id":2000004,"type":"STATE","name":"Banten","latitude":-6.21462,"longitude":106.84513,"order":200},"city":{"id":4000075,"type":"CITY","name":"Serang Kab.","latitude":-6.0831,"longitude":106.12578,"order":300}}},{"neighbourhood":{"id":5000190,"type":"NEIGHBOURHOOD","name":"Petir","latitude":-6.2476992,"longitude":106.1933837,"order":400},"parent":{"state":{"id":2000004,"type":"STATE","name":"Banten","latitude":-6.21462,"longitude":106.84513,"order":200},"city":{"id":4000075,"type":"CITY","name":"Serang Kab.","latitude":-6.0831,"longitude":106.12578,"order":300}}},{"neighbourhood":{"id":5000191,"type":"NEIGHBOURHOOD","name":"Pontang","latitude":-6.040869,"longitude":106.2639825,"order":400},"parent":{"state":{"id":2000004,"type":"STATE","name":"Banten","latitude":-6.21462,"longitude":106.84513,"order":200},"city":{"id":4000075,"type":"CITY","name":"Serang Kab.","latitude":-6.0831,"longitude":106.12578,"order":300}}},{"neighbourhood":{"id":5000192,"type":"NEIGHBOURHOOD","name":"Pulo Ampel","latitude":-5.9187707,"longitude":106.0816536,"order":400},"parent":{"state":{"id":2000004,"type":"STATE","name":"Banten","latitude":-6.21462,"longitude":106.84513,"order":200},"city":{"id":4000075,"type":"CITY","name":"Serang Kab.","latitude":-6.0831,"longitude":106.12578,"order":300}}},{"neighbourhood":{"id":5000193,"type":"NEIGHBOURHOOD","name":"Tanara","latitude":-6.0168524,"longitude":106.3817021,"order":400},"parent":{"state":{"id":2000004,"type":"STATE","name":"Banten","latitude":-6.21462,"longitude":106.84513,"order":200},"city":{"id":4000075,"type":"CITY","name":"Serang Kab.","latitude":-6.0831,"longitude":106.12578,"order":300}}},{"neighbourhood":{"id":5000194,"type":"NEIGHBOURHOOD","name":"Tirtayasa","latitude":-5.9986027,"longitude":106.3110622,"order":400},"parent":{"state":{"id":2000004,"type":"STATE","name":"Banten","latitude":-6.21462,"longitude":106.84513,"order":200},"city":{"id":4000075,"type":"CITY","name":"Serang Kab.","latitude":-6.0831,"longitude":106.12578,"order":300}}},{"neighbourhood":{"id":5000195,"type":"NEIGHBOURHOOD","name":"Tunjung Teja","latitude":-6.282288,"longitude":106.2345633,"order":400},"parent":{"state":{"id":2000004,"type":"STATE","name":"Banten","latitude":-6.21462,"longitude":106.84513,"order":200},"city":{"id":4000075,"type":"CITY","name":"Serang Kab.","latitude":-6.0831,"longitude":106.12578,"order":300}}},{"neighbourhood":{"id":5000196,"type":"NEIGHBOURHOOD","name":"Waringin Kurung","latitude":-6.0596286,"longitude":106.0669571,"order":400},"parent":{"state":{"id":2000004,"type":"STATE","name":"Banten","latitude":-6.21462,"longitude":106.84513,"order":200},"city":{"id":4000075,"type":"CITY","name":"Serang Kab.","latitude":-6.0831,"longitude":106.12578,"order":300}}},{"neighbourhood":{"id":5000197,"type":"NEIGHBOURHOOD","name":"Balaraja","latitude":-6.2038629,"longitude":106.4464766,"order":400},"parent":{"state":{"id":2000004,"type":"STATE","name":"Banten","latitude":-6.21462,"longitude":106.84513,"order":200},"city":{"id":4000076,"type":"CITY","name":"Tangerang Kab.","latitude":-6.25096,"longitude":106.48475,"order":300}}},{"neighbourhood":{"id":5000198,"type":"NEIGHBOURHOOD","name":"Cikupa","latitude":-6.2167736,"longitude":106.5230542,"order":400},"parent":{"state":{"id":2000004,"type":"STATE","name":"Banten","latitude":-6.21462,"longitude":106.84513,"order":200},"city":{"id":4000076,"type":"CITY","name":"Tangerang Kab.","latitude":-6.25096,"longitude":106.48475,"order":300}}},{"neighbourhood":{"id":5000199,"type":"NEIGHBOURHOOD","name":"Cisauk","latitude":-6.3411405,"longitude":106.635025,"order":400},"parent":{"state":{"id":2000004,"type":"STATE","name":"Banten","latitude":-6.21462,"longitude":106.84513,"order":200},"city":{"id":4000076,"type":"CITY","name":"Tangerang Kab.","latitude":-6.25096,"longitude":106.48475,"order":300}}},{"neighbourhood":{"id":5000200,"type":"NEIGHBOURHOOD","name":"Cisoka","latitude":-6.2614858,"longitude":106.4052541,"order":400},"parent":{"state":{"id":2000004,"type":"STATE","name":"Banten","latitude":-6.21462,"longitude":106.84513,"order":200},"city":{"id":4000076,"type":"CITY","name":"Tangerang Kab.","latitude":-6.25096,"longitude":106.48475,"order":300}}},{"neighbourhood":{"id":5000201,"type":"NEIGHBOURHOOD","name":"Curug","latitude":-6.2357272,"longitude":106.5701927,"order":400},"parent":{"state":{"id":2000004,"type":"STATE","name":"Banten","latitude":-6.21462,"longitude":106.84513,"order":200},"city":{"id":4000076,"type":"CITY","name":"Tangerang Kab.","latitude":-6.25096,"longitude":106.48475,"order":300}}},{"neighbourhood":{"id":5000202,"type":"NEIGHBOURHOOD","name":"Gunung Kaler","latitude":-6.0936083,"longitude":106.3758145,"order":400},"parent":{"state":{"id":2000004,"type":"STATE","name":"Banten","latitude":-6.21462,"longitude":106.84513,"order":200},"city":{"id":4000076,"type":"CITY","name":"Tangerang Kab.","latitude":-6.25096,"longitude":106.48475,"order":300}}},{"neighbourhood":{"id":5000203,"type":"NEIGHBOURHOOD","name":"Jambe","latitude":-6.325254,"longitude":106.493598,"order":400},"parent":{"state":{"id":2000004,"type":"STATE","name":"Banten","latitude":-6.21462,"longitude":106.84513,"order":200},"city":{"id":4000076,"type":"CITY","name":"Tangerang Kab.","latitude":-6.25096,"longitude":106.48475,"order":300}}},{"neighbourhood":{"id":5000204,"type":"NEIGHBOURHOOD","name":"Jayanti","latitude":-6.2053549,"longitude":106.3993658,"order":400},"parent":{"state":{"id":2000004,"type":"STATE","name":"Banten","latitude":-6.21462,"longitude":106.84513,"order":200},"city":{"id":4000076,"type":"CITY","name":"Tangerang Kab.","latitude":-6.25096,"longitude":106.48475,"order":300}}},{"neighbourhood":{"id":5000205,"type":"NEIGHBOURHOOD","name":"Kelapa Dua","latitude":-6.2395155,"longitude":106.6114474,"order":400},"parent":{"state":{"id":2000004,"type":"STATE","name":"Banten","latitude":-6.21462,"longitude":106.84513,"order":200},"city":{"id":4000076,"type":"CITY","name":"Tangerang Kab.","latitude":-6.25096,"longitude":106.48475,"order":300}}},{"neighbourhood":{"id":5000206,"type":"NEIGHBOURHOOD","name":"Kemiri","latitude":-6.0910449,"longitude":106.458256,"order":400},"parent":{"state":{"id":2000004,"type":"STATE","name":"Banten","latitude":-6.21462,"longitude":106.84513,"order":200},"city":{"id":4000076,"type":"CITY","name":"Tangerang Kab.","latitude":-6.25096,"longitude":106.48475,"order":300}}},{"neighbourhood":{"id":5000207,"type":"NEIGHBOURHOOD","name":"Kosambi","latitude":-6.0734468,"longitude":106.6939803,"order":400},"parent":{"state":{"id":2000004,"type":"STATE","name":"Banten","latitude":-6.21462,"longitude":106.84513,"order":200},"city":{"id":4000076,"type":"CITY","name":"Tangerang Kab.","latitude":-6.25096,"longitude":106.48475,"order":300}}},{"neighbourhood":{"id":5000208,"type":"NEIGHBOURHOOD","name":"Kresek","latitude":-6.143977,"longitude":106.3993658,"order":400},"parent":{"state":{"id":2000004,"type":"STATE","name":"Banten","latitude":-6.21462,"longitude":106.84513,"order":200},"city":{"id":4000076,"type":"CITY","name":"Tangerang Kab.","latitude":-6.25096,"longitude":106.48475,"order":300}}},{"neighbourhood":{"id":5000209,"type":"NEIGHBOURHOOD","name":"Kronjo","latitude":-6.076643,"longitude":106.4288088,"order":400},"parent":{"state":{"id":2000004,"type":"STATE","name":"Banten","latitude":-6.21462,"longitude":106.84513,"order":200},"city":{"id":4000076,"type":"CITY","name":"Tangerang Kab.","latitude":-6.25096,"longitude":106.48475,"order":300}}},{"neighbourhood":{"id":5000210,"type":"NEIGHBOURHOOD","name":"Legok","latitude":-6.2971525,"longitude":106.5701927,"order":400},"parent":{"state":{"id":2000004,"type":"STATE","name":"Banten","latitude":-6.21462,"longitude":106.84513,"order":200},"city":{"id":4000076,"type":"CITY","name":"Tangerang Kab.","latitude":-6.25096,"longitude":106.48475,"order":300}}},{"neighbourhood":{"id":5000211,"type":"NEIGHBOURHOOD","name":"Mauk","latitude":-6.0533001,"longitude":106.5230542,"order":400},"parent":{"state":{"id":2000004,"type":"STATE","name":"Banten","latitude":-6.21462,"longitude":106.84513,"order":200},"city":{"id":4000076,"type":"CITY","name":"Tangerang Kab.","latitude":-6.25096,"longitude":106.48475,"order":300}}},{"neighbourhood":{"id":5000212,"type":"NEIGHBOURHOOD","name":"Mekar Baru","latitude":-6.0626026,"longitude":106.3875898,"order":400},"parent":{"state":{"id":2000004,"type":"STATE","name":"Banten","latitude":-6.21462,"longitude":106.84513,"order":200},"city":{"id":4000076,"type":"CITY","name":"Tangerang Kab.","latitude":-6.25096,"longitude":106.48475,"order":300}}},{"neighbourhood":{"id":5000213,"type":"NEIGHBOURHOOD","name":"Pagedangan","latitude":-6.2956209,"longitude":106.6173415,"order":400},"parent":{"state":{"id":2000004,"type":"STATE","name":"Banten","latitude":-6.21462,"longitude":106.84513,"order":200},"city":{"id":4000076,"type":"CITY","name":"Tangerang Kab.","latitude":-6.25096,"longitude":106.48475,"order":300}}},{"neighbourhood":{"id":5000214,"type":"NEIGHBOURHOOD","name":"Pakuhaji","latitude":-6.0503588,"longitude":106.6173415,"order":400},"parent":{"state":{"id":2000004,"type":"STATE","name":"Banten","latitude":-6.21462,"longitude":106.84513,"order":200},"city":{"id":4000076,"type":"CITY","name":"Tangerang Kab.","latitude":-6.25096,"longitude":106.48475,"order":300}}},{"neighbourhood":{"id":5000215,"type":"NEIGHBOURHOOD","name":"Panongan","latitude":-6.2577125,"longitude":106.5230542,"order":400},"parent":{"state":{"id":2000004,"type":"STATE","name":"Banten","latitude":-6.21462,"longitude":106.84513,"order":200},"city":{"id":4000076,"type":"CITY","name":"Tangerang Kab.","latitude":-6.25096,"longitude":106.48475,"order":300}}},{"neighbourhood":{"id":5000216,"type":"NEIGHBOURHOOD","name":"Pasar Kemis","latitude":-6.1546723,"longitude":106.5466221,"order":400},"parent":{"state":{"id":2000004,"type":"STATE","name":"Banten","latitude":-6.21462,"longitude":106.84513,"order":200},"city":{"id":4000076,"type":"CITY","name":"Tangerang Kab.","latitude":-6.25096,"longitude":106.48475,"order":300}}},{"neighbourhood":{"id":5000217,"type":"NEIGHBOURHOOD","name":"Rajeg","latitude":-6.1152896,"longitude":106.4994889,"order":400},"parent":{"state":{"id":2000004,"type":"STATE","name":"Banten","latitude":-6.21462,"longitude":106.84513,"order":200},"city":{"id":4000076,"type":"CITY","name":"Tangerang Kab.","latitude":-6.25096,"longitude":106.48475,"order":300}}},{"neighbourhood":{"id":5000218,"type":"NEIGHBOURHOOD","name":"Sepatan","latitude":-6.1179866,"longitude":106.5760857,"order":400},"parent":{"state":{"id":2000004,"type":"STATE","name":"Banten","latitude":-6.21462,"longitude":106.84513,"order":200},"city":{"id":4000076,"type":"CITY","name":"Tangerang Kab.","latitude":-6.25096,"longitude":106.48475,"order":300}}},{"neighbourhood":{"id":5000219,"type":"NEIGHBOURHOOD","name":"Sepatan Timur","latitude":-6.11687,"longitude":106.6114474,"order":400},"parent":{"state":{"id":2000004,"type":"STATE","name":"Banten","latitude":-6.21462,"longitude":106.84513,"order":200},"city":{"id":4000076,"type":"CITY","name":"Tangerang Kab.","latitude":-6.25096,"longitude":106.48475,"order":300}}},{"neighbourhood":{"id":5000220,"type":"NEIGHBOURHOOD","name":"Sindang Jaya","latitude":-6.1766101,"longitude":106.4994889,"order":400},"parent":{"state":{"id":2000004,"type":"STATE","name":"Banten","latitude":-6.21462,"longitude":106.84513,"order":200},"city":{"id":4000076,"type":"CITY","name":"Tangerang Kab.","latitude":-6.25096,"longitude":106.48475,"order":300}}},{"neighbourhood":{"id":5000221,"type":"NEIGHBOURHOOD","name":"Solear","latitude":-6.3070347,"longitude":106.4229199,"order":400},"parent":{"state":{"id":2000004,"type":"STATE","name":"Banten","latitude":-6.21462,"longitude":106.84513,"order":200},"city":{"id":4000076,"type":"CITY","name":"Tangerang Kab.","latitude":-6.25096,"longitude":106.48475,"order":300}}},{"neighbourhood":{"id":5000222,"type":"NEIGHBOURHOOD","name":"Sukadiri","latitude":-6.0775231,"longitude":106.5642998,"order":400},"parent":{"state":{"id":2000004,"type":"STATE","name":"Banten","latitude":-6.21462,"longitude":106.84513,"order":200},"city":{"id":4000076,"type":"CITY","name":"Tangerang Kab.","latitude":-6.25096,"longitude":106.48475,"order":300}}},{"neighbourhood":{"id":5000223,"type":"NEIGHBOURHOOD","name":"Sukamulya","latitude":-6.1583904,"longitude":106.4288088,"order":400},"parent":{"state":{"id":2000004,"type":"STATE","name":"Banten","latitude":-6.21462,"longitude":106.84513,"order":200},"city":{"id":4000076,"type":"CITY","name":"Tangerang Kab.","latitude":-6.25096,"longitude":106.48475,"order":300}}},{"neighbourhood":{"id":5000224,"type":"NEIGHBOURHOOD","name":"Teluknaga","latitude":-6.0488816,"longitude":106.6645007,"order":400},"parent":{"state":{"id":2000004,"type":"STATE","name":"Banten","latitude":-6.21462,"longitude":106.84513,"order":200},"city":{"id":4000076,"type":"CITY","name":"Tangerang Kab.","latitude":-6.25096,"longitude":106.48475,"order":300}}},{"neighbourhood":{"id":5000225,"type":"NEIGHBOURHOOD","name":"Tigaraksa","latitude":-6.2618875,"longitude":106.4837451,"order":400},"parent":{"state":{"id":2000004,"type":"STATE","name":"Banten","latitude":-6.21462,"longitude":106.84513,"order":200},"city":{"id":4000076,"type":"CITY","name":"Tangerang Kab.","latitude":-6.25096,"longitude":106.48475,"order":300}}},{"neighbourhood":{"id":5000226,"type":"NEIGHBOURHOOD","name":"Cibeber","latitude":-6.035438,"longitude":106.0673841,"order":400},"parent":{"state":{"id":2000004,"type":"STATE","name":"Banten","latitude":-6.21462,"longitude":106.84513,"order":200},"city":{"id":4000077,"type":"CITY","name":"Cilegon Kota","latitude":-6.00316,"longitude":106.01069,"order":300}}},{"neighbourhood":{"id":5000227,"type":"NEIGHBOURHOOD","name":"Cilegon","latitude":-6.0186817,"longitude":106.0558218,"order":400},"parent":{"state":{"id":2000004,"type":"STATE","name":"Banten","latitude":-6.21462,"longitude":106.84513,"order":200},"city":{"id":4000077,"type":"CITY","name":"Cilegon Kota","latitude":-6.00316,"longitude":106.01069,"order":300}}},{"neighbourhood":{"id":5000228,"type":"NEIGHBOURHOOD","name":"Citangkil","latitude":-6.0127526,"longitude":106.0111203,"order":400},"parent":{"state":{"id":2000004,"type":"STATE","name":"Banten","latitude":-6.21462,"longitude":106.84513,"order":200},"city":{"id":4000077,"type":"CITY","name":"Cilegon Kota","latitude":-6.00316,"longitude":106.01069,"order":300}}},{"neighbourhood":{"id":5000229,"type":"NEIGHBOURHOOD","name":"Ciwandan","latitude":-6.0346025,"longitude":105.9641124,"order":400},"parent":{"state":{"id":2000004,"type":"STATE","name":"Banten","latitude":-6.21462,"longitude":106.84513,"order":200},"city":{"id":4000077,"type":"CITY","name":"Cilegon Kota","latitude":-6.00316,"longitude":106.01069,"order":300}}},{"neighbourhood":{"id":5000230,"type":"NEIGHBOURHOOD","name":"Gerogol","latitude":-5.9738317,"longitude":106.0316898,"order":400},"parent":{"state":{"id":2000004,"type":"STATE","name":"Banten","latitude":-6.21462,"longitude":106.84513,"order":200},"city":{"id":4000077,"type":"CITY","name":"Cilegon Kota","latitude":-6.00316,"longitude":106.01069,"order":300}}},{"neighbourhood":{"id":5000231,"type":"NEIGHBOURHOOD","name":"Jombang","latitude":-6.0109924,"longitude":106.0698963,"order":400},"parent":{"state":{"id":2000004,"type":"STATE","name":"Banten","latitude":-6.21462,"longitude":106.84513,"order":200},"city":{"id":4000077,"type":"CITY","name":"Cilegon Kota","latitude":-6.00316,"longitude":106.01069,"order":300}}},{"neighbourhood":{"id":5000232,"type":"NEIGHBOURHOOD","name":"Pulomerak","latitude":-5.9205057,"longitude":106.022874,"order":400},"parent":{"state":{"id":2000004,"type":"STATE","name":"Banten","latitude":-6.21462,"longitude":106.84513,"order":200},"city":{"id":4000077,"type":"CITY","name":"Cilegon Kota","latitude":-6.00316,"longitude":106.01069,"order":300}}},{"neighbourhood":{"id":5000233,"type":"NEIGHBOURHOOD","name":"Purwakarta","latitude":-5.991266,"longitude":106.0463837,"order":400},"parent":{"state":{"id":2000004,"type":"STATE","name":"Banten","latitude":-6.21462,"longitude":106.84513,"order":200},